NAME,ADDRESS,CITY,STATE,LATITUDE,LONGITUDE
CENTRAL VALLEY GENERAL HOSPITAL,1025 NORTH DOUTY STREET,HANFORD,CA,36.33615885,-119.6456673
LOS ROBLES HOSPITAL & MEDICAL CENTER - EAST CAMPUS,150 VIA MERIDA,WESTLAKE VILAGE,CA,34.15493887,-118.8157364
EAST LOS ANGELES DOCTORS HOSPITAL,4060 WHITTIER BOULEVARD,LOS ANGELES,CA,34.0236473,-118.1841648
SOUTHERN CALIFORNIA HOSPITAL AT HOLLYWOOD,6245 DE LONGPRE AVENUE,HOLLYWOOD,CA,34.09639136,-118.3252349
KINDRED HOSPITAL BALDWIN PARK,14148 FRANCISQUITO AVENUE,BALDWIN PARK,CA,34.06303893,-117.9674378
LAKEWOOD REGIONAL MEDICAL CENTER,3700 EAST SOUTH STREET,LAKEWOOD,CA,33.85970662,-118.148403
MONROVIA MEMORIAL HOSPITAL,323 SOUTH HELIOTROPE AVENUE,MONROVIA,CA,34.14875866,-117.9926677
MONTEREY PARK HOSPITAL,900 SOUTH ATLANTIC BOULEVARD,MONTEREY PARK,CA,34.04946606,-118.1382622
STAR VIEW ADOLESCENT - P H F,4025 WEST 226 STREET,TORRANCE,CA,33.82391446,-118.3560969
CORONA REGIONAL MEDICAL CENTER-MAGNOLIA,730 MAGNOLIA AVENUE,CORONA,CA,33.85808331,-117.553858
MODOC MEDICAL CENTER,228 MC DOWELL STREET,ALTURAS,CA,41.48005626,-120.545744
SALINAS VALLEY MEMORIAL HOSPITAL,450 EAST ROMIE LANE,SALINAS,CA,36.65903046,-121.6459838
CORPUS CHRISTI SPECIALTY HOSPITAL,1310 THIRD STREET,CORPUS CHRISTI,TX,27.77851017,-97.39620831
HEALTHBRIDGE CHILDREN'S HOSPITAL-ORANGE,393 S. TUSTIN STREET,ORANGE,CA,33.78272717,-117.8338919
HEALTHSOUTH TUSTIN REHABILITATION HOSPITAL,14851 YORBA STREET,TUSTIN,CA,33.74746074,-117.8310556
KINDRED HOSPITAL BREA,875 NORTH BREA BOULEVARD,BREA,CA,33.93449589,-117.8939488
KINDRED HOSPITAL WESTMINSTER,200 HOSPITAL CIRCLE,WESTMINSTER,CA,33.76353321,-117.995256
KAWEAH DELTA MENTAL HEALTH HOSPITAL D/P APH,1100 SO. AKERS STREET,VISALIA,CA,36.32084395,-119.3482345
CHARLTON MEMORIAL HOSPITAL,2449 THIRD STREET,FOLKSTON,GA,30.84527535,-82.00505739
DAUTERIVE HOSPITAL,600 N LEWIS AVE.,NEW IBERIA,LA,30.00690698,-91.79452385
CROCKETT MEDICAL CENTER,1100 EAST LOOP 304,CROCKETT,TX,31.32360364,-95.43889931
CENTRAL LOUISIANA STATE HOSPITAL,242 W SHAMROCK AVE,PINEVILLE,LA,31.32737894,-92.44013511
REEVES MEMORIAL MEDICAL CENTER,409 1ST ST,BERNICE,LA,32.82399167,-92.65664868
SERENITY SPRINGS SPECIALTY HOSPITAL,309 N MAIN ST,FARMERVILLE,LA,32.77612793,-92.40562585
RIVERBRIDGE SPECIALTY HOSPITAL,209 FRONT ST.,VIDALIA,LA,31.56117486,-91.42606698
CITIZENS MEDICAL CENTER,7939 HIGHWAY 165,COLUMBIA,LA,32.06003995,-92.09913767
BROWN MEMORIAL CONVALESCENT CENTER,545 COOK STREET,ROYSTON,GA,34.28325037,-83.11897237
COLLEGE MEDICAL CENTER,2776 PACIFIC AVENUE,LONG BEACH,CA,33.80709287,-118.1933899
KAISER FOUNDATION HOSPITAL - SAN LEANDRO,2500 MERCED STREET,SAN LEANDRO,CA,37.7064062,-122.1646545
KINDRED HOSPITAL PARAMOUNT,16453 SOUTH COLORADO AVENUE,PARAMOUNT,CA,33.88463186,-118.1622671
DEPARTMENT OF STATE HOSPITAL-METROPOLITAN,11401 BLOOMFIELD AVENUE,NORWALK,CA,33.92803135,-118.0679897
PINCKNEYVILLE COMMUNITY HOSPITAL,5383 STATE ROUTE 154,PINCKNEYVILLE,IL,38.084846,-89.349108
ST JOSEPH'S HOSPITAL - SAVANNAH,11705 MERCY BOULEVARD,SAVANNAH,GA,31.98543032,-81.15455637
KINDRED HOSPITAL ROME,320 TURNER MCCALL BOULEVARD,ROME,GA,34.25971345,-85.18023963
UPSON REGIONAL MEDICAL CENTER,801 W GORDON STREET,THOMASTON,GA,32.8862977,-84.33650699
PHOEBE SUMTER MEDICAL CENTER,126 HIGHWAY 280 W,AMERICUS,GA,32.06696234,-84.2560502
ROOSEVELT WARM SPRINGS LTAC HOSPITAL,6135 ROOSEVELT HIGHWAY,WARM SPRINGS,GA,32.88798074,-84.6923449
SOUTHEASTERN REGIONAL MEDICAL CENTER,600 CELEBRATE LIFE PKWY,NEWNAN,GA,33.38483465,-84.75774669
DOCTORS CENTER HOSPITAL SANFERNANDO DE CAROLINA,"CALLE FERNANDEZ JUNCOS, EDIFICIO JESUS T. PINEIRO",CAROLINA,PR,18.380443,-65.95579
BROWN CTY COMMUNITY TREATMENT CENTER,3150 GERSHWIN DRIVE,GREEN BAY,WI,44.52271226,-87.92482708
WHEATON FRANCISCAN WI HEART SPINE AND ORTHO,10000 WEST BLUEMOUND ROAD,WAUWATOSA,WI,43.03581215,-88.03726582
HOSPITAL PSIQUIATRICO DE NINOS YADOLESCENTES,"AVE LAUREL 100, URB. SANTA JUANITA",BAYAMON,PR,18.36765566,-66.15439126
COMPASS BEHAVIORAL CENTER OF ALEXANDRIA,6410 MASONIC DRIVE,ALEXANDRIA,LA,31.25219156,-92.48198781
OCSHNER ST. ANNE GENERAL HOSPITAL,4608 HIGHWAY 1,RACELAND,LA,29.70267142,-90.5652539
FELICIANA FORENSIC FACILITY,4502 HWY 951,JACKSON,LA,30.83263569,-91.21066049
UNITED MEDICAL HEALTHWEST-NEW ORLEANS,3201 WALL BOULEVARD,GRETNA,LA,29.86597947,-90.03069185
RIPON MEDICAL CENTER,845 PARKSIDE ST,RIPON,WI,43.83437609,-88.81775153
VA MEDICAL CENTER - PROVIDENCE,830 CHALKSTONE AVE,PROVIDENCE,RI,41.83213908,-71.43314954
TOMAH VA MEDICAL CENTER,500 E VETERANS ST,TOMAH,WI,44.00308068,-90.49331901
ASCENSION GOOD SAMARITAN HLTH CTR,601 S CENTER AVE,MERRILL,WI,45.17563254,-89.68183128
RESTPADD PSYCHIATRIC HEALTH FACILITY,2750 EUREKA WAY,REDDING,CA,40.58659539,-122.4119741
THE CHAMPION CENTER,303 SOUTH C STREET,LOMPOC,CA,34.63537161,-120.4521883
STEWART WEBSTER HOSPITAL,580 ALSTON STREET,RICHLAND,GA,32.08616827,-84.66069977
KAISER FND HOSP ONTARIO MEDICAL CENTER CAMPUS,2295 S. VINEYARD AVENUE,ONTARIO,CA,34.03207956,-117.6085993
LOMA LINDA UNIV. MED. CENTER EAST CAMPUS HOSPITAL,25333 BARTON ROAD,LOMA LINDA,CA,34.04730564,-117.2516368
ST. BERNARDINE MEDICAL CENTER,2101 NORTH WATERMAN AVENUE,SAN BERNARDINO,CA,34.13467236,-117.27702
KAISER FND HOSP - SAN DIEGO,4647 ZION AVENUE,SAN DIEGO,CA,32.79156258,-117.0951595
SCRIPPS GREEN HOSPITAL,10666 NORTH TORREY PINES ROAD,LA JOLLA,CA,32.8968589,-117.2428711
SCRIPPS MEMORIAL HOSPITAL - ENCINITAS,354 SANTA FE DRIVE,ENCINITAS,CA,33.03734478,-117.2841834
SHARP MARY BIRCH HOSPITAL FOR WOMEN AND NEWBORNS,3003 HEALTH CENTER DRIVE,SAN DIEGO,CA,32.79829578,-117.1549778
UC SAN DIEGO HEALTH HILLCREST - HILLCREST MEDICAL CENTER,200 WEST ARBOR DRIVE,SAN DIEGO,CA,32.75477023,-117.1657314
CALIFORNIA PACIFIC MED CTR-CALIFORNIA WEST,3700 CALIFORNIA STREET,SAN FRANCISCO,CA,37.7865092,-122.4560306
CALIFORNIA PACIFIC MED CTR-PACIFIC CAMPUS,2333 BUCHANAN STREET,SAN FRANCISCO,CA,37.79070454,-122.4312945
"ST. MARY'S MEDICAL CENTER, SAN FRANCISCO",450 STANYAN STREET,SAN FRANCISCO,CA,37.77408876,-122.4537516
KAISER FND HOSP - SANTA ROSA,401 BICENTENNIAL WAY,SANTA ROSA,CA,38.47179301,-122.7270644
KAISER FND HOSP - REHABILITATION CENTER VALLEJO,975 SERENO DRIVE,VALLEJO,CA,38.12690208,-122.2483773
WOODLAND MEMORIAL HOSPITAL,1325 COTTONWOOD STREET,WOODLAND,CA,38.66392502,-121.7921452
ALTA BATES SUMMIT MED CTR-SUMMIT CAMPUS-SUMMIT,3100 SUMMIT STREET,OAKLAND,CA,37.82013961,-122.2640042
SAN LEANDRO HOSPITAL,13855 EAST 14TH STREET,SAN LEANDRO,CA,37.71228835,-122.1434937
ST. ROSE HOSPITAL,27200 CALAROGA AVENUE,HAYWARD,CA,37.63344199,-122.0879125
ST. JOSEPH'S BEHAVIORAL HEALTH CENTER,2510 NORTH CALIFORNIA STREET,STOCKTON,CA,37.9765963,-121.2910709
ST. JOSEPH'S MEDICAL CENTER OF STOCKTON,1800 NORTH CALIFORNIA STREET,STOCKTON,CA,37.97046719,-121.2881828
FOOTHILL PRESBYTERIAN HOSPITAL-JOHNSTON MEMORIAL,250 SOUTH GRAND AVENUE,GLENDORA,CA,34.13265458,-117.8712597
GLENDALE MEMORIAL HOSPITAL AND HEALTH CENTER,1420 SOUTH CENTRAL AVENUE,GLENDALE,CA,34.12816563,-118.2566432
KAISER FOUNDATION LOS ANGELES MEDICAL CENTER,4867 SUNSET BOULEVARD,LOS ANGELES,CA,34.09857365,-118.2941753
KAISER PERMANENTE PANORAMA CITY,13652 CANTARA STREET,PANORAMA CITY,CA,34.21856419,-118.4302193
PROVIDENCE TARZANA MEDICAL CENTER,18321 CLARK STREET,TARZANA,CA,34.17039322,-118.5319041
SHRINERS HOSPITAL FOR CHILDREN - L.A.,3160 GENEVA STREET,LOS ANGELES,CA,34.06720478,-118.2863921
GARDENS REGIONAL HOSPITAL AND MEDICAL CENTER,21530 SOUTH PIONEER BOULEVARD,HAWAIIAN GARDENS,CA,33.83364001,-118.079678
ADVENTIST HEALTH CLEARLAKE,15630 18TH AVE - HWY 53,CLEARLAKE,CA,38.93561886,-122.6201445
VALLEY CHILDREN'S HOSPITAL,9300 VALLEY CHILDREN'S PLACE,MADERA,CA,36.88404783,-119.8002424
EISENHOWER MEDICAL CENTER,39-000 BOB HOPE DRIVE,RANCHO MIRAGE,CA,33.76335207,-116.4062411
GOOD SAMARITAN HOSPITAL-SAN JOSE,2425 SAMARITAN DRIVE,SAN JOSE,CA,37.25207874,-121.9465769
KAISER FND HOSP - SANTA CLARA,700 LAWRENCE EXPRESSWAY,SANTA CLARA,CA,37.33540138,-121.998873
LUCILE SALTER PACKARD CHILDREN'S HOSP. AT STANFORD,725 WELCH ROAD,PALO ALTO,CA,37.43600458,-122.17539
KAISER FND HOSP - REDWOOD CITY,1100 VETERANS BOULEVARD,REDWOOD CITY,CA,37.48884784,-122.2233901
JOHN MUIR MEDICAL CENTER-CONCORD CAMPUS,2540 EAST STREET,CONCORD,CA,37.98308958,-122.0334968
SUTTER DELTA MEDICAL CENTER,3901 LONE TREE WAY,ANTIOCH,CA,37.98223445,-121.8029785
KAISER FND HOSP - SACRAMENTO,2025 MORSE AVENUE,SACRAMENTO,CA,38.60179775,-121.393144
SIERRA NEVADA MEMORIAL HOSPITAL,155 GLASSON WAY,GRASS VALLEY,CA,39.22801629,-121.0474998
LA PALMA INTERCOMMUNITY HOSPITAL,7901 WALKER STREET,LA PALMA,CA,33.84751418,-118.0383023
SADDLEBACK MEMORIAL MEDICAL CENTER - SAN CLEMENTE,654 CAMINO DE LOS MARES,SAN CLEMENTE,CA,33.45706524,-117.6501839
FREMONT MEDICAL CENTER,970 PLUMAS STREET,YUBA CITY,CA,39.14310632,-121.618012
PIEDMONT MOUNTAINSIDE HOSPITAL,1266 EAST CHURCH STREET,JASPER,GA,34.45824868,-84.41291289
ST MARYS HEALTH CARE SYSTEM,1230 BAXTER STREET,ATHENS,GA,33.94722132,-83.40525246
RIDGEVIEW INSTITUTE,3995 SOUTH COBB DRIVE SE,SMYRNA,GA,33.85644329,-84.51105483
WESTERLY HOSPITAL,25 WELLS ST,WESTERLY,RI,41.36218908,-71.82530324
ST MARYS HOSPITAL MADISON,700 SOUTH PARK ST,MADISON,WI,43.05933846,-89.40142922
AURORA PSYCHIATRIC HSPTL,1220 DEWEY AVE,WAUWATOSA,WI,43.0467651,-88.00771643
COLUMBIA CENTER,13125 N PORT WASHINGTON RD,MEQUON,WI,43.25667793,-87.92615796
THEDACARE MEDICAL CENTER BERLIN,225 MEMORIAL DRIVE,BERLIN,WI,43.97847715,-88.94122636
MERCY HOSPITAL ROGERS,2710 RIFE MEDICAL LANE,ROGERS,AR,36.30899285,-94.18297802
ST CROIX REG MED CTR,235 STATE STREET,SAINT CROIX FALLS,WI,45.40903243,-92.64257812
WESTFIELDS HOSPITAL,535 HOSPITAL RD,NEW RICHMOND,WI,45.11776075,-92.55550038
ST NICHOLAS HOSPITAL,3100 SUPERIOR AVE,SHEBOYGAN,WI,43.7623479,-87.74753796
VERNON MEM HSPTL,507 SOUTH MAIN ST,VIROQUA,WI,43.55167397,-90.88839128
PIH HOSPITAL - DOWNEY,11500 BROOKSHIRE AVENUE,DOWNEY,CA,33.9343518,-118.130904
PROVIDENCE LITTLE COMPANY OF MARY TRANSITIONAL CARE CENTER,4320 MARICOPA STREET,TORRANCE,CA,33.83934812,-118.3597215
LOMA LINDA UNIVERSITY CHILDREN'S HOSPITAL,11234 ANDERSON STREET,LOMA LINDA,CA,34.05013083,-117.2640945
ASCENSION NE WISCONSIN MERCY CAMPUS,500 S OAKWOOD RD,OSHKOSH,WI,44.01242072,-88.60104549
MEDSTAR-GEORGETOWN UNIVERSITY MEDICAL CENTER,"3800 RESERVOIR ROAD, NW",WASHINGTON,DC,38.91195851,-77.07525457
ADVENT HEALTH DADE CITY,13100 FORT KING RD,DADE CITY,FL,28.34796286,-82.20072008
DELRAY MEDICAL CENTER,5352 LINTON BLVD,DELRAY BEACH,FL,26.43719284,-80.12778775
POINCIANA MEDICAL CENTER,325 CYPRESS PKWY,KISSIMMEE,FL,28.14478076,-81.47668786
ARBOUR FULLER HOSPITAL,200 MAY STREET,ATTLEBORO,MA,41.92408385,-71.36112256
ARBOUR HUMAN RESOURCE INSTITUTE,227 BABCOCK STREET,BROOKLINE,MA,42.35077951,-71.12124228
ASSENCION ST. VINCENT'S MEDICAL CENTER CLAY COUNTY,1670 ST. VINCENT'S WAY,MIDDLEBURG,FL,30.10876243,-81.83268869
ENCOMPASS HEALTH REHABILITATION HOSPITAL OF OCALA,2275 SW 22ND LANE,OCALA,FL,29.16587554,-82.16233494
"NATCHAUG HOSPITAL, INC.",189 STORRS RD,MANSFIELD CENTER,CT,41.74110392,-72.19801148
ENCOMPASS HEALTH REHABILITATION HOSPITAL AT MARTIN HEALTH,5850 SE COMMUNITY DR,STUART,FL,27.13343729,-80.22245582
SHRINERS' HOSPITAL FOR CHILDREN,51 BLOSSOM ST,BOSTON,MA,42.36309255,-71.06630188
SPAULDING REHABILITATION HOSPITAL,300 1ST AVE,BOSTON,MA,42.37850908,-71.04905555
DR JOHN C CORRIGAN MENTAL HEALTH CENTER,49 HILLSIDE STREET,FALL RIVER,MA,41.70748691,-71.14571447
BAY RIDGE HOSPITAL BEVERLY,60 GRANITE STREET,LYNN,MA,42.47162011,-70.95676093
ENCOMPASS HEALTH HOSPITAL OF WESTERN MASS,222 STATE STREET,LUDLOW,MA,42.15577594,-72.47207734
T J HEALTH COLUMBIA,901 WESTLAKE DRIVE,COLUMBIA,KY,37.09664157,-85.29454565
DECATUR COUNTY HOSPITAL,1405 NORTHWEST CHURCH STREET,LEON,IA,40.75093467,-93.74694077
ANDERSON COUNTY HOSPITAL,421 SOUTH MAPLE STREET,GARNETT,KS,38.279877,-95.25033865
KEARNY COUNTY HOSPITAL,500 THORPE STREET,LAKIN,KS,37.94659327,-101.2519299
OTTAWA COUNTY HEALTH CENTER,215 E 8TH STREET,MINNEAPOLIS,KS,39.12933196,-97.70394425
BETH ISRAEL DEACONESS HOSPITAL - NEEDHAM,148 CHESTNUT STREET,NEEDHAM,MA,42.2771,-71.2369
VIBRA HOSPITAL OF SOUTHWESTERN MASSACHUSETTS,4499 ACUSHNET AVENUE,NEW BEDFORD,MA,41.74072523,-70.94575361
NORWOOD HOSPITAL,800 WASHINGTON ROAD,NORWOOD,MA,42.189,-71.2021
SPAULDING REHABILITATION HOSPITAL CAPE COD,311 SERVICE ROAD,SANDWICH,MA,41.7329845,-70.46810284
CAMBRIDGE HEALTH ALLIANCE - SOMERVILLE CAMPUS,230 HIGHLAND AVENUE,SOMERVILLE,MA,42.39,-71.1094
SHRINERS' HOSPITAL FOR CHILDREN,516 CAREW ST,SPRINGFIELD,MA,42.12131503,-72.59237295
MERCY HOSPITAL FORT SMITH,7301 ROGERS AVENUE,FORT SMITH,AR,35.35586599,-94.35205497
HEALTHSOUTH REHABILITATION HOSPITAL OF FORT SMITH,1401 SOUTH J STREET,FORT SMITH,AR,35.37394031,-94.41875448
WHITE COUNTY MEDICAL CENTER - SOUTH CAMPUS,1200 SOUTH MAIN STREET,SEARCY,AR,35.23409441,-91.73107431
WHITE COUNTY MEDICAL CENTER - NORTH CAMPUS,3214 EAST RACE AVENUE,SEARCY,AR,35.25188604,-91.69700113
RIVER VALLEY MEDICAL CENTER,200 NORTH THIRD STREET,DARDANELLE,AR,35.22047614,-93.15729817
BAPTIST HEALTH MEDICAL CENTER - ARKADELPHIA,3050 TWIN RIVERS DRIVE,ARKADELPHIA,AR,34.12291357,-93.08882416
MERCY HOSPITAL BERRYVILLE,214 CARTER STREET,BERRYVILLE,AR,36.3590621,-93.55182577
EUREKA SPRINGS HOSPITAL,24 NORRIS STREET,EUREKA SPRINGS,AR,36.40016379,-93.74423592
SOUTHEAST REHABILITATION HOSPITAL,2729A HWY 65 & 82 S,LAKE VILLAGE,AR,33.30629397,-91.28958992
BRADLEY COUNTY MEDICAL CENTER,404 SOUTH BRADLEY STREET,WARREN,AR,33.61036413,-92.05925489
FIVE RIVER MEDICAL CENTER,2801 MEDICAL CENTER DRIVE,POCAHONTAS,AR,36.28976027,-90.99738763
DALLAS COUNTY MEDICAL CENTER,201 NORTH CLIFTON STREET,FORDYCE,AR,33.81085539,-92.42558764
CRITTENDEN HOSPITAL ASSOCIATION,200 WEST TYLER AVENUE,WEST MEMPHIS,AR,35.14311024,-90.18909851
OUACHITA CO. MEDICAL CENTER,638 CALIFORNIA AVENUE,CAMDEN,AR,33.57582113,-92.83673933
NORTH ARKANSAS REGIONAL MEDICAL CENTER,620 NORTH WILLOW,HARRISON,AR,36.23653136,-93.10913937
STONE COUNTY MEDICAL CENTER,"2106 EAST MAIN STREET, HIGHWAY 14 EAST",MOUNTAIN VIEW,AR,35.85658313,-92.08286453
PIGGOTT COMMUNITY HOSPITAL,1206 GORDON DUCKWORTH DRIVE,PIGGOTT,AR,36.39011947,-90.20483796
BAPTIST HEALTH - HEBER SPRINGS,1800 BYPASS ROAD,HEBER SPRINGS,AR,35.48856958,-92.05798114
ST. VINCENT MORRILTON,4 HOSPITAL DRIVE,MORRILTON,AR,35.16801491,-92.72135132
UAMS MEDICAL CENTER,4301 WEST MARKHAM STREET,LITTLE ROCK,AR,34.74902515,-92.32013731
BAPTIST HEALTH MEDICAL CENTER - NORTH LITTLE ROCK,3333 SPRINGHILL DRIVE,LITTLE ROCK,AR,34.78365489,-92.22340916
UNITED METHODIST BEHAVIORAL HEALTH SYSTEMS,1601 MURPHY DRIVE,MAUMELLE,AR,34.87643567,-92.39441325
LEO N. LEVI NATIONAL ARTHRITIS HOSPITAL,300 PROSPECT AVENUE,HOT SPRINGS,AR,34.50989707,-93.05757749
HOT SPRINGS REHABILITATION CENTER,105 RESERVE STREET,HOT SPRINGS,AR,34.51212501,-93.05260787
CHI ST VINCENT HOSPITAL HOT SPRINGS,300 WERNER STREET,HOT SPRINGS,AR,34.46802567,-93.06627041
BAPTIST HEALTH MEDICAL CENTER - HOT SPRING COUNTY,1001 SCHNEIDER DRIVE,MALVERN,AR,34.35877404,-92.7858884
ARKANSAS DEPT. OF CORRECTION-DIAGNOSTIC UNIT,7500 CORRECTIONS CIRCLE,PINE BLUFF,AR,34.22219143,-92.08268605
JEFFERSON REGIONAL MEDICAL CENTER,1600 WEST 40TH AVENUE,PINE BLUFF,AR,34.18773469,-92.0176802
HEALTHSOUTH REHABILITATION HOSPITAL,153 EAST MONTE PAINTER DRIVE,FAYETTEVILLE,AR,36.10909938,-94.15484504
"MEMORIAL HEALTH UNIV MED CEN, INC",4700 WATERS AVENUE,SAVANNAH,GA,32.03053088,-81.08886242
VANTAGE POINT OF NORTHWEST ARKANSAS,4253 CROSSOVER ROAD,FAYETTEVILLE,AR,36.12789076,-94.11985143
NORTHWEST MEDICAL CENTER - WILLOW CREEK WOMEN'S HOSPITAL,4301 GREATHOUSE SPRINGS ROAD,SPRINGDALE,AR,36.13551027,-94.18621922
ASCENSION NE WISCONSIN ST. ELIZABETH HOSPITAL,1506 S ONEIDA ST,APPLETON,WI,44.24825124,-88.40250968
MENA REGIONAL HEALTH SYSTEM,311 NORTH MORROW STREET,MENA,AR,34.5890536,-94.22163124
MERCY HOSPITAL BOONEVILLE,880 WEST MAIN STREET,BOONEVILLE,AR,35.14032192,-93.93517063
MERCY HOSPITAL PARIS,500 EAST ACADEMY,PARIS,AR,35.28929334,-93.72487855
CROSSRIDGE COMMUNITY HOSPITAL,310 SOUTH FALLS BOULEVARD,WYNNE,AR,35.21955792,-90.78664054
BAPTIST HEALTH REHABILITATION INSTITUTE,9601 BAPTIST HEALTH DRIVE,LITTLE ROCK,AR,34.74429608,-92.38181609
ASCENSION SACRED HEART REHAB INST,2301 NORTH LAKE DRIVE,MILWAUKEE,WI,43.06145544,-87.88038438
SANTA CRUZ VALLEY HOSPITAL,4455 SOUTH I-19 FRONTAGE RD,GREEN VALLEY,AZ,31.80657111,-111.0100185
BAPTIST HEALTH MEDICAL CENTER-STUTTGART,1703 NORTH BUERKLE ROAD,STUTTGART,AR,34.5175108,-91.55829954
CASEY COUNTY HOSPITAL,187 WOLFORD AVENUE,LIBERTY,KY,37.31771681,-84.93317191
MARCUM AND WALLACE MEMORIAL HOSPITAL,60 MERCY COURT,IRVINE,KY,37.7061971,-83.97727714
HIGHLANDS REGIONAL MEDICAL CENTER,5000 KENTUCKY ROUTE 321,PRESTONSBURG,KY,37.72901006,-82.76732008
NORTON WOMEN'S AND KOSAIR CHILDREN'S HOSPITAL,4001 DUTCHMANS LANE,LOUISVILLE,KY,38.23533009,-85.63293693
SAINTS MARY & ELIZABETH HOSPITAL,1850 BLUEGRASS AVENUE,LOUISVILLE,KY,38.17826438,-85.79391641
THE BROOK - DUPONT,1405 BROWNS LANE,LOUISVILLE,KY,38.23569663,-85.62734095
BAPTIST HEALTH LA GRANGE,1025 NEW MOODY LANE,LAGRANGE,KY,38.39489019,-85.37606515
ADCARE HOSPITAL OF WORCESTER INC,107 LINCOLN STREET,WORCESTER,MA,42.27641208,-71.79491979
EDITH NOURSE ROGERS MEMORIAL VETERANS HOSPITAL,200 SPRINGS ROAD,BEDFORD,MA,42.5047,-71.2744
AMESBURY HEALTH CENTER,24 MORRILL PLACE,AMESBURY,MA,42.8484144,-70.93338025
BETH ISRAEL DEACONESS MEDICAL CENTER - WEST CAMPUS,ONE DEACONESS RD,BOSTON,MA,42.3379,-71.1092
"ARBOUR HOSPITAL, THE",49 ROBINWOOD AVENUE,BOSTON,MA,42.31581841,-71.11227314
BEVERLY HOSPITAL ADDISON GILBERT CAMPUS,298 WASHINGTON STREET,GLOUCESTER,MA,42.6255,-70.6806
VIBRA HOSPITAL OF WESTERN MASS CENTRAL CAMPUS,111 HUNTOON MEMORIAL HIGHWAY,LEICESTER,MA,42.20189928,-71.89882734
WORCESTER RECOVERY CENTER AND HOSPITAL,309 BELMONT STREET,WORCESTER,MA,42.27966719,-71.76906694
HOULTON REGIONAL HOSPITAL,20 HARTFORD STREET,HOULTON,ME,46.13384624,-67.84362347
NORTHERN LIGHT INLAND HOSPITAL,200 KENNEDY MEMORIAL DRIVE,WATERVILLE,ME,44.54182648,-69.66149107
MAINEGENERAL MEDICAL CENTER,6 EAST CHESTNUT STREET,AUGUSTA,ME,44.31311976,-69.76843437
MAINEGENERAL MEDICAL CENTER-SETON,30 CHASE AVENUE,WATERVILLE,ME,44.54919273,-69.65867356
SAINT ANDREWS HOSPITAL AND HEALTHCARE CENTER,6 SAINT ANDREWS LANE,BOOTHBAY HARBOR,ME,43.85034393,-69.6387693
MIDMICHIGAN MEDICAL CENTER-GLADWIN,515 QUARTER STREET,GLADWIN,MI,43.97594367,-84.49388756
HELEN NEWBERRY JOY HOSPITAL,502 W HARRIE ST,NEWBERRY,MI,46.35318009,-85.51565374
MUNISING MEMORIAL HOSPITAL,1500 SAND POINT RD,MUNISING,MI,46.42527107,-86.6251853
BOURNEWOOD HOSPITAL,300 SOUTH STREET,BROOKLINE,MA,42.29831857,-71.14928568
SAINT JOSEPH MERCY LIVINGSTON HOSPITAL,620 BYRON RD,HOWELL,MI,42.61558756,-83.9409904
HILLSDALE COMMUNITY HEALTH CENTER,168 S HOWELL STREET,HILLSDALE,MI,41.91173869,-84.63300353
DMC SURGERY HOSPITAL,30671 STEPHENSON HIGHWAY,MADISON HEIGHTS,MI,42.51788754,-83.12010727
"LAKELAND COMMUNITY HOSPITAL, WATERVLIET",400 MEDICAL PARK DR,WATERVLIET,MI,42.18488046,-86.24992583
MCLAREN CENTRAL MICHIGAN,1221 SOUTH DRIVE,MOUNT PLEASANT,MI,43.59912248,-84.76141286
SPECTRUM HEALTH LUDINGTON HOSPITAL,1 N ATKINSON DRIVE,LUDINGTON,MI,43.95814794,-86.43040938
BRONSON LAKEVIEW HOSPITAL,408 HAZEN STREET,PAW PAW,MI,42.22129436,-85.89707006
DECKERVILLE COMMUNITY HOSPITAL,3559 PINE ST,DECKERVILLE,MI,43.52811921,-82.73424915
HENRY FORD HOSPITAL,2799 W GRAND BLVD,DETROIT,MI,42.36768678,-83.08472312
MAYO CLINIC HEALTH SYS ALBT LE,404 WEST FOUNTAIN STREET,ALBERT LEA,MN,43.6523607,-93.3727523
MAYO CLINIC HEALTH SYS CF,32021 COUNTY 24 BOULEVARD,CANNON FALLS,MN,44.48616464,-92.9032023
MAYO CLINIC HEALTH SYS FAIRMNT,"800 MEDICAL CTR DRIVE, PO 800",FAIRMONT,MN,43.63880146,-94.450437
MAYO CLINIC HEALTH SYSTEM S F,625 JACKSON ST N,SPRINGFIELD,MN,44.24661914,-94.97108361
HARRY S. TRUMAN MEMORIAL VETERANS HOSPITAL,800 HOSPITAL DR,COLUMBIA,MO,38.93666726,-92.32905785
VIBRA HOSPITAL OF CENTRAL DAKOTAS,1000 18TH ST NW,MANDAN,ND,46.8418693,-100.9076977
JACOBSON MEMORIAL HOSPITAL & CARE CENTER,601 EAST ST N,ELGIN,ND,46.40732581,-101.8414635
COMMUNITY HOSPITAL OF ANDERSON AND MADISON COUNTY,1515 N MADISON AVE,ANDERSON,IN,40.13064559,-85.69320918
MEMORIAL HOSPITAL OF SOUTH BEND,615 N MICHIGAN ST,SOUTH BEND,IN,41.68405529,-86.25157885
COMPLEX CARE HOSPITAL AT TENAYA,2500 NORTH TENAYA,LAS VEGAS,NV,36.20553077,-115.2503564
DESERT SPRINGS HOSPITAL MEDICAL CENTER,2075 EAST FLAMINGO ROAD,LAS VEGAS,NV,36.11395958,-115.1245052
EASTERN REGIONAL MEDICAL CENTER,1331 EAST WYOMING AVENUE,PHILADELPHIA,PA,40.01881298,-75.09946405
THOMAS JEFFERSON UNIVERSITY HOSPITAL,111 SOUTH 11TH STREET,PHILADELPHIA,PA,39.94970838,-75.15794605
PENN PRESBYTERIAN MEDICAL CENTER,51 NORTH 39TH STREET,PHILADELPHIA,PA,39.95887248,-75.19926368
ST JOSEPHS HOSPITAL,16TH STREET & GIRARD AVENUE,PHILADELPHIA,PA,39.97148609,-75.16319015
VA MEDICAL CENTER - PHILADELPHIA,UNIVERSITY & WOODLAND AVENUES,PHILADELPHIA,PA,39.94788477,-75.20007509
GEISINGER MEDICAL CENTER,100 NORTH ACADEMY AVENUE,DANVILLE,PA,40.96814496,-76.60525611
NORTHSIDE HOSPITAL - CHEROKEE,450 NORTHSIDE CHEROKEE BOULEVARD,CANTON,GA,34.229238,-84.466259
"SOUTHWELL MEDICAL, A CAMPUS OF TRMC",260 MJ TAYLOR ROAD,ADEL,GA,31.10819893,-83.42737285
NORTHERN MONTANA HOSPITAL,30 13TH ST,HAVRE,MT,48.53807731,-109.6858178
MUSC MEDICAL CENTER,169 ASHLEY AVE,CHARLESTON,SC,32.78588204,-79.94792136
VERITAS COLLABORATIVE GEORGIA,41 PERIMETER CENTER EAST,ATLANTA,GA,33.9242473,-84.33106507
PAGE MEMORIAL HOSPITAL,200 MEMORIAL DRIVE,LURAY,VA,38.66325,-78.468518
UH PORTAGE - ROBINSON MEMORIAL HOSPITAL,6847 N CHESTNUT,RAVENNA,OH,41.17605775,-81.2490173
DELL CHILDREN'S MEDICAL CENTER,4900 MUELLER BOULEVARD,AUSTIN,TX,30.30311083,-97.70702246
COOK CHILDREN'S MEDICAL CENTER,801 SEVENTH AVENUE,FORT WORTH,TX,32.73707173,-97.34140504
ARBOR HEALTH MORTON GENERAL HOSPITAL,521 ADAMS ST,MORTON,WA,46.55567481,-122.2803544
"INDIANA SPINE HOSPITAL, LLC",13219 N MERIDIAN STREET,CARMEL,IN,39.98041995,-86.15347262
ASCENSION SE WISCONSIN HOSPITAL - ELMBROOK CAMPUS,19333 W NORTH AVE,BROOKFIELD,WI,43.0593759,-88.15451943
ASCENSION SE WISCONSIN HOSPITAL - FRANKLIN CAMPUS,10101 SOUTH 27TH STREET,FRANKLIN,WI,42.86001258,-87.9540681
ASCENSION SE WISCONSIN HOSPITAL ST JOSEPH,5000 W CHAMBERS ST,MILWAUKEE,WI,43.07412025,-87.9760734
ASCENSION ST CLARES HOSPITAL,3400 MINISTRY PARKWAY,WESTON,WI,44.89018231,-89.58014599
ASCENSION ST FRANCIS HOSPITAL,3237 S 16TH ST,MILWAUKEE,WI,42.98565775,-87.93465729
ASCENSION ST MARYS HOSPITAL,2251 NORTH SHORE DR,RHINELANDER,WI,45.63947041,-89.37482659
MIAMI VALLEY HOSPITAL,ONE WYOMING STREET,DAYTON,OH,39.7448932,-84.18590861
ASCENSION ST MICHAELS HOSPITAL,900 ILLINOIS AVE,STEVENS POINT,WI,44.52643184,-89.56709621
ASPIRUS RIVERVIEW HSPTL ASSOC,410 DEWEY STREET,WISCONSIN RAPIDS,WI,44.38175803,-89.82988944
ASPIRUS WAUSAU HOSPITAL,333 PINE RIDGE BLVD,WAUSAU,WI,44.96584185,-89.66789021
AURORA LAKELAND MED CTR,W3985 CTY RD NN,ELKHORN,WI,42.66189503,-88.49619199
AURORA MED CENTER-WASHINGTON COUNTY,1032 E SUMNER ST,HARTFORD,WI,43.31840584,-88.36246156
AURORA MED CTR KENOSHA,10400 75TH ST,KENOSHA,WI,42.56939682,-87.93546502
AURORA MED CTR MANITOWOC CTY,5000 MEMORIAL DR,TWO RIVERS,WI,44.12536783,-87.61945613
MHP MEDICAL CENTER,2451 INTELLIPLEX DRIVE,SHELBYVILLE,IN,39.560356,-85.785817
COVENANT CHILDREN'S HOSPITAL,4015 22ND PLACE,LUBBOCK,TX,33.57340325,-101.900592
PARKVIEW WABASH HOSPITAL,10 JOHN KISSINGER DRIVE,WABASH,IN,40.820937,-85.823901
NEURO BEHAVIORAL HOSPITAL,9330 BROADWAY,CROWN POINT,IN,41.44880307,-87.33726012
PERRY COUNTY MEMORIAL HOSPITAL,8885 SR 237,TELL CITY,IN,37.967931,-86.731667
ST JOSEPH HEALTH CENTER,667 EASTLAND AVE SE,WARREN,OH,41.23091175,-80.77715528
TRUMBULL MEMORIAL HOSPITAL,1350 EAST MARKET STREET,WARREN,OH,41.23585592,-80.79877826
PROVIDENCE HOOD RIVER MEMORIAL HOSPITAL,810 12TH STREET,HOOD RIVER,OR,45.70483197,-121.5239086
RIVERSIDE MEDICAL CENTER,350 N WALL ST,KANKAKEE,IL,41.12508686,-87.88189889
BLUE MOUNTAIN HOSPITAL,170 FORD ROAD,JOHN DAY,OR,44.41711272,-118.9596915
VASSAR BROTHERS MEDICAL CENTER,45 READE PL,POUGHKEEPSIE,NY,41.69385894,-73.93578611
ERIE COUNTY MEDICAL CENTER,462 GRIDER ST,BUFFALO,NY,42.9250771,-78.83114577
STRONG MEMORIAL HOSPITAL,601 ELMWOOD AVE,ROCHESTER,NY,43.12280887,-77.62425943
NORTH SHORE UNIVERSITY HOSPITAL,300 COMMUNITY DR,MANHASSET,NY,40.77763592,-73.70161094
EDWIN SHAW REHABILITATION INSTITUTE,330 BROADWAY EAST,CUYAHOGA FALLS,OH,41.13214627,-81.47737547
NASSAU UNIVERSITY MEDICAL CENTER,2201 HEMPSTEAD TPKE,EAST MEADOW,NY,40.72625551,-73.55373802
SOUTH NASSAU COMMUNITIES HOSPITAL,1 HEALTHY WAY,OCEANSIDE,NY,40.650998,-73.63083944
UNIVERSITY HOSPITAL SUNY HEALTH SCIENCE CENTER,750 E ADAMS ST,SYRACUSE,NY,43.04189732,-76.13983046
ST. LUKE'S CORNWALL HOSPITAL - NEWBURGH CAMPUS,70 DUBOIS ST,NEWBURGH,NY,41.50342485,-74.01456558
PARKLAND MEDICAL CENTER,ONE PARKLAND DRIVE,DERRY,NH,42.87677117,-71.31666154
ORANGE REGIONAL MEDICAL CENTER,707 EAST MAIN STREET,MIDDLETOWN,NY,41.44191408,-74.36831227
SAMARITAN HOSPITAL,2215 BURDETT AVE,TROY,NY,42.73329249,-73.672164
CANTON-POTSDAM HOSPITAL,50 LEROY ST,POTSDAM,NY,44.67651062,-74.98211632
PEACEHEALTH PEACE ISLAND MEDICAL CENTER,1117 SPRING ST,FRIDAY HARBOR,WA,48.52677897,-123.0296011
MONTEFLORE NYACK HOSPITAL,160 N MIDLAND AVE,NYACK,NY,41.09621147,-73.92601813
SARATOGA HOSPITAL,211 CHURCH ST,SARATOGA,NY,43.08588022,-73.79678273
NORTHSHORE UNIVERSITY HEALTHSYSTEM DBA HIGHLAND PARK HOSPITAL,777 PARK AVENUE WEST,HIGHLAND PARK,IL,42.19110677,-87.80841495
ADVOCATE CONDELL MEDICAL CENTER,801 S MILWAUKEE AVE,LIBERTYVILLE,IL,42.274235,-87.95769974
ADVOCATE GOOD SHEPHERD HOSPITAL,450 WEST HIGHWAY 22,BARRINGTON,IL,42.19538237,-88.17281887
GALESBURG COTTAGE HOSPITAL,695 N KELLOGG ST,GALESBURG,IL,40.95579903,-90.36576026
ST MARY MEDICAL CENTER,3333 NORTH SEMINARY,GALESBURG,IL,40.98671028,-90.36024492
MIDWESTERN REGION MED CENTER,2520 ELISHA AVENUE,ZION,IL,42.44925783,-87.82783284
KENNEDY KREIGER INSTITUTE,707 N BROADWAY,BALTIMORE,MD,39.29928098,-76.59281871
MERCY MEDICAL CENTER,301 ST PAUL PLACE,BALTIMORE,MD,39.29292155,-76.61288423
SINAI HOSPITAL OF BALTIMORE,2401 WEST BELVEDERE AVE,BALTIMORE,MD,39.35230251,-76.66209015
UNIVERSITY OF MARYLAND MEDICAL CENTER,22 S GREENE ST,BALTIMORE,MD,39.28790857,-76.62492593
ST. JAMES HOSPITAL,411 CANISTEO ST,HORNELL,NY,42.31387327,-77.6606131
JOHNS HOPKINS BAYVIEW MEDICAL CENTER,4940 EASTERN AVENUE,BALTIMORE,MD,39.29067881,-76.54677819
VALLEY REGIONAL HOSPITAL,243 ELM STREET,CLAREMONT,NH,43.38458975,-72.34069671
HAMPSTEAD HOSPITAL,218 EAST ROAD,HAMPSTEAD,NH,42.87166334,-71.15420708
FRISBIE MEMORIAL HOSPITAL,11 WHITEHALL ROAD,ROCHESTER,NH,43.2975566,-70.96016086
CROTCHED MOUNTAIN REHABILITATION CENTER,1 VERNEY DRIVE,GREENFIELD,NH,42.9718711,-71.87453591
SOUTHERN NEW HAMPSHIRE MEDICAL CENTER,8 PROSPECT STREET,NASHUA,NH,42.75627984,-71.4613747
ST JOSEPH HOSPITAL,172 KINSLEY ST,NASHUA,NH,42.74923911,-71.48021205
ELLIOT HOSPITAL CITY OF MANCHESTER,ONE ELLIOT WAY,MANCHESTER,NH,42.983954,-71.438
CONCORD HOSPITAL,250 PLEASANT STREET,CONCORD,NH,43.19774414,-71.5620204
FRANKLIN REGIONAL HOSPITAL,15 AIKEN AVE,FRANKLIN,NH,43.44840426,-71.64455273
UNIVERSITY HOSPITAL STONEY BROOK SOUTHAMPTON HOSPITAL,240 MEETING HOUSE LANE,SOUTHAMPTON,NY,40.88505974,-72.37994406
EASTERN LONG ISLAND HOSPITAL,201 MANOR PL,GREENPORT,NY,41.11036057,-72.36112732
HUNTINGTON HOSPITAL,270 PARK AVE,HUNTINGTON,NY,40.87932924,-73.41619953
SOUTHSIDE HOSPITAL,301 E MAIN ST,BAY SHORE,NY,40.72596015,-73.24115864
SAINT JOSEPH HOSPITAL,ONE ST JOSEPH DRIVE,LEXINGTON,KY,38.03233973,-84.52329929
SHRINERS HOSPITAL FOR CHILDREN,1900 RICHMOND RD,LEXINGTON,KY,38.02270661,-84.47269852
GOOD SAMARITAN HOSPITAL - WEST ISLIP,1000 MONTAUK HIGHWAY,WEST ISLIP,NY,40.69388013,-73.29439462
HEALTHALLIANCE HOSPITAL - BROADWAY CAMPUS,396 BROADWAY,KINGSTON,NY,41.92665841,-73.99484207
ELLENVILLE REGIONAL HOSPITAL,10 HEALTHY WAY,ELLENVILLE,NY,41.73262979,-74.37903498
NEWARK-WAYNE COMMUNITY HOSPITAL,1200 DRIVING PARK AVE BOX 111,NEWARK,NY,43.06049938,-77.10166991
ST. JOHN'S RIVERSIDE HOSPITAL - DOBBS FERRY,128 ASHFORD AVE,DOBBS FERRY,NY,41.01439225,-73.86191965
PHELPS MEMORIAL HOSPITAL CENTER,701 NORTH BROADWAY,SLEEPY HOLLOW,NY,41.10900706,-73.86308776
TWIN LAKES REGIONAL MEDICAL CENTER,910 WALLACE AVENUE,LEITCHFIELD,KY,37.4725153,-86.28859309
OUR LADY OF BELLEFONTE HOSPITAL,1000 ST. CHRISTOPHER DRIVE,ASHLAND,KY,38.50845432,-82.69261651
BLYTHEDALE CHILDREN'S HOSPITAL,95 BRADHURST AVE,VALHALLA,NY,41.07484754,-73.79997224
PASSAVANT AREA HOSPITAL,1600 W WALNUT ST,JACKSONVILLE,IL,39.74608499,-90.26048664
BROOK LANE HEALTH SERVICES,13218 BROOK LANE DRIVE,HAGERSTOWN,MD,39.6769953,-77.6105994
GARRARD COUNTY HOSPITAL,308 WEST MAPLE AVENUE,LANCASTER,KY,37.62202606,-84.58515725
WESTCHESTER MEDICAL CENTER,100 WOODS RD,VALHALLA,NY,41.08609075,-73.80495477
MONTEFIORE MEDICAL CENTER - MOSES DIVISION,111 E 210TH ST,BRONX,NY,40.88007926,-73.8798267
FRANKFORT REGIONAL MEDICAL CENTER,299 KINGS DAUGHTERS DRIVE,FRANKFORT,KY,38.16066175,-84.9068937
NORTH CENTRAL BRONX HOSPITAL,3424 KOSSUTH AVE,BRONX,NY,40.8803656,-73.88105711
MERITUS MEDICAL CENTER,11116 MEDICAL CAMPUS ROAD,HAGERSTOWN,MD,39.62219281,-77.68256295
BROOKDALE HOSPITAL MEDICAL CENTER,1 BROOKDALE PLAZA,BROOKLYN,NY,40.6552691,-73.91255653
BROOKLYN HOSPITAL CENTER,121 DEKALB AVE,BROOKLYN,NY,40.69057251,-73.97788376
MONTEFIORE WESTCHESTER SQUARE MEDICAL CENTER,2475 RAYMOND AVENUE,BRONX,NY,40.84074311,-73.84851753
KINGS COUNTY HOSPITAL CENTER,451 CLARKSON AVE,BROOKLYN,NY,40.65661638,-73.94469079
CONEY ISLAND HOSPITAL,2601 OCEAN PARKWAY,BROOKLYN,NY,40.58541438,-73.96533243
NYU LUTHERAN MEDICAL CENTER,150 55TH ST,BROOKLYN,NY,40.64656399,-74.02091469
JACOBI MEDICAL CENTER,1400 PELHAM PARKWAY SOUTH,BRONX,NY,40.85629836,-73.84751215
NEW YORK METHODIST HOSPITAL,506 6TH ST,BROOKLYN,NY,40.6677617,-73.97899052
NYU HOSPITAL FOR JOINT DISEASES,301 E 17TH ST,NEW YORK,NY,40.73443169,-73.98299996
NEW YORK PRESBYTERIAN MORGAN STANLEY CHILDREN'S HOSPITAL,3959 BROADWAY,NEW YORK,NY,40.83976326,-73.94128258
THE ADDICTION INSTITUTE OF NEW YORK,1000 10TH AVE,NEW YORK,NY,40.76941213,-73.9868084
ELMHURST HOSPITAL CENTER,79-01 BROADWAY,ELMHURST,NY,40.74482736,-73.88607967
JAMAICA HOSPITAL MEDICAL CENTER,8900 VAN WYCK EXPRESSWAY,JAMAICA,NY,40.70010365,-73.81611489
HOOPESTON COMMUNITY MEMORIAL HOSPITAL,701 EAST ORANGE STREET,HOOPESTON,IL,40.45868989,-87.65973327
OSF HEALTHCARESYSTEM DBA SACRED HEART MEDICAL CENTER,812 N LOGAN,DANVILLE,IL,40.13783245,-87.64543324
THE MEDICAL CENTER AT BOWLING GREEN,250 PARK STREET,BOWLING GREEN,KY,36.99597151,-86.42975938
NEW YORK PRESBYTERIAN QUEENS,56 45 MAIN ST,FLUSHING,NY,40.74677228,-73.82541638
"ROCK REGIONAL HOSPITAL, LLC",3251 N ROCK RD,DERBY,KS,37.58277168,-97.24698571
GLEN COVE HOSPITAL,101 ST ANDREWS LANE,GLEN COVE,NY,40.8710014,-73.62238567
EPHRAIM MCDOWELL FORT LOGAN HOSPITAL,110 METKER TRAIL,STANFORD,KY,37.54279432,-84.65303656
LIVINGSTON HOSPITAL AND HEALTHCARE SERVICES,131 HOSPITAL DRIVE,SALEM,KY,37.26305319,-88.22850246
MONTEFIORE NEW ROCHELLE HOSPITAL,16 GUION PLACE,NEW ROCHELLE,NY,40.91280606,-73.7877626
MOUNT SINAI BETH ISRAEL BROOKLYN,3201 KINGS HIGHWAY,BROOKLYN,NY,40.6188201,-73.94290124
NEW YORK PRESBYTERIAN HOSPITAL - WESTCHESTER DIVISION,21 BLOOMINGDALE ROAD,WHITE PLAINS,NY,41.02757951,-73.75390988
HARLEM HOSPITAL CENTER,506 LENOX AVENUE,NEW YORK,NY,40.81426493,-73.93986126
HENRY J. CARTER SPECIALTY HOSPITAL,1752 PARK AVENUE,NEW YORK,NY,40.80328511,-73.94162385
SAINT BARNABAS HOSPITAL HEALTH SYSTEM,4422 THIRD AVENUE,BRONX,NY,40.85268901,-73.89136288
IRA DAVENPORT MEMORIAL HOSPITAL INC,7571 STATE ROUTE 54,BATH,NY,42.3743292,-77.27890663
ST. MARY'S HEALTHCARE - AMSTERDAM MEMORIAL CAMPUS,4988 STHWY 30,AMSTERDAM,NY,42.95906517,-74.18712293
THE BURDETT CARE CENTER,2215 BURDETT AVENUE,TROY,NY,42.73335775,-73.67266608
MORRIS HOSPITAL & HEALTHCARE CENTERS,150 W HIGH ST,MORRIS,IL,41.3693259,-88.42675331
SWEDISH AMERICAN HOSPITAL,1401 EAST STATE STREET,ROCKFORD,IL,42.26567488,-89.07413954
JAVON BEA HOSPITAL DBA MERCY HEALTH HOSPITAL ROCKTON AVE,2400 NORTH ROCKTON AVENUE,ROCKFORD,IL,42.29842717,-89.09844135
THE UNIVERSITY OF VERMONT HEALTH NETWORK - CHAMPLAIN VALLEY PHYSICIANS HOSPITAL,75 BEEKMAN ST,PLATTSBURGH,NY,44.70044304,-73.46941987
MONTEFIORE MEDICAL CENTER-WAKEFIELD HOSPITAL,600 EAST 233RD STREET,BRONX,NY,40.89369717,-73.86119119
HOLY CROSS HOSPITAL,1500 FOREST GLEN ROAD,SILVER SPRING,MD,39.01472214,-77.03573523
SILVER CROSS HOSPITAL AND MEDICAL CENTERS,1900 SILVER CROSS BLVD,NEW LENOX,IL,41.54468733,-87.98343597
ADVENTIST BOLINGBROOK HOSPITAL,500 REMINGTON BOULEVARD,BOLINGBROOK,IL,41.68086496,-88.08465144
FORT WASHINGTON HOSPITAL,11711 LIVINGSTON ROAD,FORT WASHINGTON,MD,38.72856337,-76.99270169
MOUNT SINAI ST. LUKE'S,1111 AMSTERDAM AVENUE,NEW YORK,NY,40.80492254,-73.96159035
NEW YORK PRESBYTERIAN HOSPITAL - COLUMBIA PRESBYTERIAN CENTER,622 WEST 168TH STREET,NEW YORK,NY,40.84105288,-73.94068652
NEW YORK PRESBYTERIAN HOSPITAL - NEW YORK WEILL CORNELL CENTER,525 EAST 68TH STREET,NEW YORK,NY,40.76454994,-73.95433226
NYULMC - COBBLE HILL,83 AMITY STREET,BROOKLYN,NY,40.68987342,-73.99776571
URMC STRONG WEST,156 WEST AVENUE,BROCKPORT,NY,43.22161178,-77.94457511
WOMEN AND CHILDREN'S HOSPITAL OF BUFFALO,219 BRYANT STREET,BUFFALO,NY,42.90920851,-78.87520901
NYU WINTHROP-UNIVERSITY HOSPITAL,259 FIRST STREET,MINEOLA,NY,40.74069748,-73.6430084
UPMC CHAUTAUQUA AT WCA,51 GLASGOW AVENUE,JAMESTOWN,NY,42.09116724,-79.24536584
SJRH - PARK CARE PAVILION,2 PARK AVENUE,YONKERS,NY,40.94038607,-73.89165239
VA MEDICAL CENTER - CANANDAIGUA,400 FORT HILL AVE,CANANDAIGUA,NY,42.90123744,-77.26963606
FOUR WINDS HOSPITAL WESTCHESTER,800 CROSS RIVER ROAD,KATONAH,NY,41.26639132,-73.62071751
FOUR WINDS HOSPITAL SARATOGA,30 CRESCENT AVENUE,SARATOGA SPRINGS,NY,43.05813047,-73.78539606
METHODIST HOSPITAL,1305 N ELM STREET,HENDERSON,KY,37.85497461,-87.58319902
CROSSROADS COMMUNITY HOSPITAL,8 DOCTORS PARK ROAD,MOUNT VERNON,IL,38.31164516,-88.93688084
COPLEY MEMORIAL HOSPITAL INC DBA RUSH COPLEY MEDICAL CENTER,2000 OGDEN AVENUE,AURORA,IL,41.72900718,-88.27061598
DELNOR COMMUNITY HOSPITAL,300 RANDALL RD,GENEVA,IL,41.88661497,-88.34345036
PRESENCE CENTRAL AND SUBURBAN HOSPITALS NETWORK DBA PRESENCE MERCY MEDICAL CENTER,1325 N HIGHLAND AVENUE,AURORA,IL,41.78580955,-88.32576904
BLUEGRASS COMMUNITY HOSPITAL,360 AMSDEN AVE.,VERSAILLES,KY,38.05476569,-84.72378834
JAMES J. PETERS VA MEDICAL CENTER,130 W KINGSBRIDGE RD,BRONX,NY,40.86734866,-73.90638209
HEART OF TEXAS MEMORIAL HOSPITAL,2008 NINE RD,BRADY,TX,31.1176885,-99.34685361
JACKSON COUNTY HOSPITAL,1013 SOUTH WELLS STREET,EDNA,TX,28.96910475,-96.63588688
SCHLEICHER COUNTY MEDICAL CENTER,400 MURCHISON AVENUE,ELDORADO,TX,30.86300194,-100.6029941
TAYLOR REGIONAL HOSPITAL,1700 OLD LEBANON ROAD,CAMPBELLSVILLE,KY,37.36635176,-85.33810656
COCHRAN MEMORIAL HOSPITAL,201 EAST GRANT AVENUE,MORTON,TX,33.71973751,-102.7575223
WESTERN MARYLAND REGIONAL MEDICAL CENTER,12500 WILLOWBROOK ROAD,CUMBERLAND,MD,39.64783067,-78.7332415
ANNE ARUNDEL MEDICAL CENTER,2001 MEDICAL PARKWAY,ANNAPOLIS,MD,38.98992672,-76.53461243
KIRBY MEDICAL CENTER,1000 MEDICAL CENTER DRIVE,MONTICELLO,IL,40.06044805,-88.5588217
SAINT FRANCIS MEDICAL CENTER,530 NE GLEN OAK AVE,PEORIA,IL,40.70274682,-89.59196543
BLESSING CARE CORPORATION ILLINI COMMUNITY HOSPITAL,640 W WASHINGTON,PITTSFIELD,IL,39.60744348,-90.8151327
MUSCOGEE (CREEK) NATION PHYSICAL REHABILITATION CENTER,900 EAST AIRPORT ROAD,OKMULGEE,OK,35.66753235,-95.96033181
BLESSING HOSPITAL,BROADWAY AT 11TH STREET,QUINCY,IL,39.93635888,-91.3994572
VALIR REHABILITATION HOSPITAL OF OKC,700 NW SEVENTH STREET,OKLAHOMA CITY,OK,35.47489624,-97.52494158
METHODIST MEDICAL CENTER OF ILLINOIS,221 N E GLEN OAK AVE,PEORIA,IL,40.7003058,-89.59491684
REHABILITATION INSTITUTE OF CHICAGO,345 EAST SUPERIOR STREET,CHICAGO,IL,41.89545454,-87.6183348
RIVEREDGE HOSPITAL,8311 WEST ROOSEVELT ROAD,FOREST  PARK,IL,41.86489307,-87.82828251
NORTHSHORE UNIVERSITY HEALTH SYSTEM SKOKIE HOSPITAL,9600 GROSS POINT ROAD,SKOKIE,IL,42.05641606,-87.74070961
RUSH OAK PARK HOSPITAL,520 S MAPLE AVE,OAK PARK,IL,41.87861801,-87.80335153
ADVENTIST MIDWEST HEALTH DBA ADVENTIST LA GRANGE MEMORIAL HOSPITAL,5101 S WILLOW SPRINGS RD,LA GRANGE,IL,41.79706055,-87.88639493
GOTTLEB MEMORIAL HOSPITAL LOYOLA HEALTH SYSTEM AT GOTTLIEB,701 WEST NORTH AVE,MELROSE PARK,IL,41.91052978,-87.84281507
CHRISTUS MOTHER FRANCES HOSPITAL - WINNSBORO,719 WEST COKE ROAD,WINNSBORO,TX,32.94453832,-95.30727963
YOAKUM COMMUNITY HOSPITAL,1200 CARL RAMERT DRIVE,YOAKUM,TX,29.30695852,-97.12915909
LORETTO HOSPITAL,645 SOUTH CENTRAL AVE,CHICAGO,IL,41.87212457,-87.76408865
THE UNIVERSITY OF CHICAGO MEDICAL CENTER,5841 SOUTH MARYLAND,CHICAGO,IL,41.78874685,-87.60433713
GOLDEN PLAINS COMMUNITY HOSPITAL,100 MEDICAL DRIVE,BORGER,TX,35.65513819,-101.4091807
THOREK MEMORIAL HOSPITAL,850 W IRVING PARK RD,CHICAGO,IL,41.95518902,-87.65162124
JOHN H STROGER JR HOSPITAL,1901 W HARRISON ST,CHICAGO,IL,41.87233487,-87.67439846
MERCY HOSPITAL AND MEDICAL CENTER,2525 S MICHIGAN AVE,CHICAGO,IL,41.84688958,-87.6214916
LITTLE COMPANY OF MARY HOSPITAL,2800 W 95TH ST,EVERGREEN PARK,IL,41.721465,-87.69302888
ADVOCATE NORTHSIDE HEALTH NETWORK DBA ILLINOIS MASONIC MEDICAL CENTER,836 WEST WELLINGTON AVENUE,CHICAGO,IL,41.93674085,-87.65137166
METHODIST HOSPITAL OF CHICAGO,5025 N PAULINA STREET,CHICAGO,IL,41.97308677,-87.67074306
ADVOCATE CHRIST HOSPITAL & MEDICAL CENTER,4440 W 95TH STREET,OAK LAWN,IL,41.72169452,-87.73244225
LUTHERAN GENERAL HOSPITAL ADVOCATE,1775 DEMPSTER ST,PARK RIDGE,IL,42.03880223,-87.84733438
NORTHWEST COMMUNITY HOSPITAL,800 W CENTRAL ROAD,ARLINGTON HEIGHTS,IL,42.06829111,-87.99218163
ALEXIAN BROTHERS MEDICAL CENTER,800 W BIESTERFIELD RD,ELK GROVE VILLAGE,IL,42.00465682,-88.01689228
NORTHWESTERN MEMORIAL HOSPITAL,251 E HURON ST,CHICAGO,IL,41.89460771,-87.62102437
ST ALEXIUS MEDICAL CENTER,1555 N BARRINGTON RD,HOFFMAN ESTATES,IL,42.05292846,-88.14103422
PROVIDENT HOSPITAL OF COOK COUNTY,500 E 51ST ST,CHICAGO,IL,41.80267501,-87.61332387
RUSSELL COUNTY HOSPITAL,"153 DOWELL RD., PO BOX 1610",RUSSELL SPRINGS,KY,37.05758045,-85.06735281
RALEIGH GENERAL HOSPITAL,1710 HARPER ROAD,BECKLEY,WV,37.7875544,-81.20193159
ROCKCASTLE REGIONAL HOSPITAL & RESPIRATORY CARE CENTER,145 NEWCOMB AVE,MT VERNON,KY,37.35796432,-84.33590332
UNION HOSPITAL OF CECIL COUNTY,106 BOW STREET,ELKTON,MD,39.60851453,-75.83196705
BAPTIST HEALTH LOUISVILLE,4000 KRESGE WAY,LOUISVILLE,KY,38.23811825,-85.6371443
JEWISH HOSPITAL & ST. MARY'S HEALTHCARE,200 ABRAHAM FLEXNER WAY,LOUISVILLE,KY,38.24913165,-85.7511895
KINDRED HOSPITAL - LOUISVILLE,1313 SAINT ANTHONY PLACE,LOUISVILLE,KY,38.24265652,-85.73123773
OUR LADY OF PEACE,2020 NEWBURG RD,LOUISVILLE,KY,38.218809,-85.71059213
UNIVERSITY OF LOUISVILLE HOSPITAL,530 S JACKSON ST,LOUISVILLE,KY,38.24832296,-85.74433596
PAUL B HALL REGIONAL MEDICAL CENTER,625 JAMES S TRIMBLE BLVD,PAINTSVILLE,KY,37.81551094,-82.8130513
JEFFERSON MEDICAL CENTER,300 SOUTH PRESTON STREET,RANSON,WV,39.29598914,-77.85875906
PLATEAU MEDICAL CENTER,430 MAIN STREET,OAK HILL,WV,37.97127658,-81.14978059
MINNIE HAMILTON HEALTH CARE CENTER,186 HOSPITAL DRIVE,GRANTSVILLE,WV,38.92276007,-81.09249296
ST MARY'S MEDICAL CENTER,2900 1ST AVENUE,HUNTINGTON,WV,38.43055045,-82.40041273
PRINCETON COMMUNITY HOSPITAL,"122 12TH STREET, PO BOX 1369",PRINCETON,WV,37.36271893,-81.11301085
PLEASANT VALLEY HOSPITAL,2520 VALLEY DRIVE,POINT PLEASANT,WV,38.86906541,-82.12322387
BOONE MEMORIAL HOSPITAL,701 MADISON AVENUE,MADISON,WV,38.0482,-81.80619
POCAHONTAS MEMORIAL HOSPITAL,"150 DUNCAN RD, RR BOX 52 WEST",BUCKEYE,WV,38.20082912,-80.1089784
PRESTON MEMORIAL HOSPITAL,300 S PRICE STREET,KINGWOOD,WV,39.46507784,-79.6878575
WILLIAM R SHARPE JR HOSPITAL,936 SHARPE HOSPITAL ROAD,WESTON,WV,39.04114927,-80.49630427
UNIVERSITY OF KANSAS HOSPITAL TRANSPLANT CENTER,4000 CAMPBRIDGE ST,KANSAS CITY,KS,39.0558273,-94.6089825
ST JOSEPH HOSPITAL,1 AMALIA DRIVE,BUCKHANNON,WV,38.99141205,-80.2363893
BERKELEY MEDICAL CENTER,2500 HOSPITAL DRIVE,MARTINSBURG,WV,39.47624347,-77.98023718
WEST VIRGINIA UNIVERSITY HOSPITALS,1 MEDICAL CENTER DRIVE,MORGANTOWN,WV,39.65442257,-79.95802214
REYNOLDS MEMORIAL HOSPITAL,800 WHEELING AVE,GLEN DALE,WV,39.94614193,-80.75243755
ST ANTHONYS MEMORIAL HOSPITAL,503 N MAPLE STREET,EFFINGHAM,IL,39.12577602,-88.55012522
MEADOWVIEW REGIONAL MEDICAL CENTER,989 MEDICAL PARK DRIVE,MAYSVILLE,KY,38.63997438,-83.80810517
ST. ELIZABETH FLORENCE,4900 HOUSTON ROAD,FLORENCE,KY,39.01659182,-84.63076721
PINEVILLE COMMUNITY HOSPITAL,850 RIVERVIEW AVE,PINEVILLE,KY,36.76291694,-83.70776873
GENESIS HEALTH SYSTEM DBA GENESIS MEDICAL CENTER - SILVIS,801 ILLINI DRIVE,SILVIS,IL,41.49432574,-90.41841611
TRINITY MEDICAL CENTER(WEST) DBA TRINITY ROCK ISLAND,2701 17TH ST,ROCK ISLAND,IL,41.48261527,-90.57041813
MEMORIAL MEDICAL CENTER,701 N FIRST ST,SPRINGFIELD,IL,39.80936884,-89.6557791
EPHRAIM MCDOWELL REGIONAL MEDICAL CENTER,217 SOUTH THIRD STREET,DANVILLE,KY,37.64387331,-84.77300114
THE CARLE FOUNDATION HOSPITAL,611 WEST PARK STREET,URBANA,IL,40.11704176,-88.21494866
SPOONER HOSPITAL SYS,819 ASH ST,SPOONER,WI,45.82559733,-91.89634651
SPRING VIEW HOSPITAL,320 LORETTO ROAD,LEBANON,KY,37.56982888,-85.26145641
OWENSBORO HEALTH MUHLENBERG COMMUNITY HOSPITAL,440 HOPKINSVILLE STREET,GREENVILLE,KY,37.19653539,-87.1892945
HUTCHINGS PSYCHIATRIC CENTER,620 MADISON STREET,SYRACUSE,NY,43.04519375,-76.14054445
CALDWELL MEDICAL CENTER,100 MEDICAL CENTER DRIVE,PRINCETON,KY,37.11367431,-87.90960048
T J SAMSON COMMUNITY HOSPITAL,1301 NORTH RACE STREET,GLASGOW,KY,37.01139239,-85.90451397
ROLLING HILLS HOSPITAL,1000 ROLLING HILLS LANE,ADA,OK,34.78459567,-96.62745078
FAIRVIEW REGIONAL MEDICAL CENTER,523 EAST STATE ROAD,FAIRVIEW,OK,36.27598778,-98.47452341
LATIMER COUNTY GENERAL HOSPITAL,806 HIGHWAY 2 NORTH,WILBURTON,OK,34.91947628,-95.32085573
MASON DISTRICT HOSPITAL,"615 NORTH PROMENADE STREET, P O BOX 530",HAVANA,IL,40.30542314,-90.0540907
WESTERN STATE HOSPITAL,2400 RUSSELLVILLE ROAD,HOPKINSVILLE,KY,36.86466922,-87.45126672
PIKEVILLE MEDICAL CENTER,911 BYPASS RD,PIKEVILLE,KY,37.47124167,-82.5222475
OU MEDICAL CENTER -THE CHILDREN'S HOSPITAL,1200 CHILDREN'S AVE,OKLAHOMA CITY,OK,35.48165324,-97.49610501
HANS P PETERSON MEMORIAL HOSPITAL,503 WEST PINE STREET,PHILIP,SD,44.03980876,-101.6714768
MCALESTER REGIONAL HEALTH CENTER,ONE CLARK BASS BOULEVARD,MCALESTER,OK,34.93688174,-95.75092529
OKLAHOMA SPINE HOSPITAL,14101 PARKWAY COMMONS DRIVE,OKLAHOMA CITY,OK,35.61450132,-97.5833
ST JOSEPH MEDICAL CENTER,2200 E WASHINGTON,BLOOMINGTON,IL,40.48267659,-88.9555622
HAZARD ARH REGIONAL MEDICAL CENTER,100 MEDICAL CENTER DRIVE,HAZARD,KY,37.27829795,-83.22788224
TUG VALLEY ARH REGIONAL MEDICAL CENTER,260 HOSPITAL DRIVE,SOUTH WILLIAMSON,KY,37.67651064,-82.29702272
DECATUR MEMORIAL HOSPITAL,2300 NORTH EDWARD STREET,DECATUR,IL,39.8672534,-88.96098295
NORTHWESTERN MEDICINE MCHENRY WOODSTOCK HUNTLEY HOSPITAL,4201 MEDICAL CENTER DRIVE,MCHENRY,IL,42.31779814,-88.279468
ADVOCATE HEALTH AND HOSPITALS CORPORATION DBA ADVOCATE BROMENN HEALTHCARE,1304 FRANKLIN AVENUE,NORMAL,IL,40.49697098,-88.99085
MEMORIAL HOSPITAL,3073 WHITE MOUNTAIN HIGHWAY,NORTH CONWAY,NH,44.06181269,-71.1368538
CHESHIRE MEDICAL CENTER,580 COURT STREET,KEENE,NH,42.9488432,-72.2919009
LITTLETON REGIONAL HEALTHCARE,600 ST. JOHNSBURY ROAD,LITTLETON,NH,44.31793388,-71.82555904
ALICE PECK DAY MEMORIAL HOSPITAL,10 ALICE PECK DAY DRIVE,LEBANON,NH,43.63844773,-72.28600257
INTEGRIS GROVE HOSPITAL,1001 EAST 18TH STREET,GROVE,OK,36.58128735,-94.75857669
LAKES REGION GENERAL HOSPITAL,80 HIGHLAND STREET,LACONIA,NH,43.52855555,-71.46318101
ACH BEHAVIORAL HEALTH AND WELLNESS SERVICES,821 FIELDCREST DRIVE,CAMBRIDGE,MD,38.54945363,-76.05799123
INTEGRIS BASS BAPTIST HEALTH CENTER,600 SOUTH MONROE STREET,ENID,OK,36.39016529,-97.88742558
JACKSON COUNTY MEMORIAL HOSPITAL,1200 EAST PECAN STREET,ALTUS,OK,34.63523975,-99.31803877
HASKELL COUNTY COMMUNITY HOSPITAL,401 NORTHWEST 'H' STREET,STIGLER,OK,35.26116507,-95.12875158
ADVENTIST MIDWEST HEALTH DBA ADVENTIST HINSDALE HOSPITAL,120 NORTH OAK ST,HINSDALE,IL,41.80591716,-87.92122132
ELMHURST MEMORIAL HOSPITAL,155 EAST BRUSH HILL ROAD,ELMHURST,IL,41.86376199,-87.93557914
CENTRAL DUPAGE HOSPITAL,25 NORTH WINFIELD ROAD,WINFIELD,IL,41.87352056,-88.1557587
ADVENTIST GLENOAKS,701 WINTHROP AVENUE,GLENDALE HEIGHTS,IL,41.9148249,-88.05697653
ALLIANCEHEALTH WOODWARD,900 17TH STREET,WOODWARD,OK,36.43739791,-99.40033722
SUN BEHAVIORAL HEALTH,820 DOLWICK DRIVE,ERLANGER,KY,39.038841,-84.594436
SOUTHWESTERN MEDICAL CENTER,5602 SW LEE BOULEVARD,LAWTON,OK,34.59263525,-98.46274019
JIM TALIAFERRO COMMUNITY MENTAL HEALTH CENTER,602 SW 38TH STREET,LAWTON,OK,34.60310119,-98.43861928
DRUMRIGHT REGIONAL HOSPITAL,610 W BYPASS,DRUMRIGHT,OK,35.99810679,-96.60596661
STILLWATER MEDICAL CENTER,1323 WEST SIXTH AVENUE,STILLWATER,OK,36.1150111,-97.07510207
CHOCTAW MEMORIAL HOSPITAL,1405 EAST KIRK STREET,HUGO,OK,34.0123721,-95.49665009
NORMAN SPECIALTY HOSPITAL,1210 WEST ROBINSON STREET,NORMAN,OK,35.2323599,-97.46015234
ALLIANCEHEALTH SEMINOLE,2401 WRANGLER BOULEVARD,SEMINOLE,OK,35.24497499,-96.69840924
HILLCREST HOSPITAL SOUTH,8801 SOUTH 101ST EAST AVENUE,TULSA,OK,36.0353155,-95.86355986
HILLCREST MEDICAL CENTER,1120 SOUTH UTICA,TULSA,OK,36.14716118,-95.96851083
MERCY HOSPITAL ARDMORE,1011 14TH AVENUE NW,ARDMORE,OK,34.18896758,-97.14084275
MERCY HOSPITAL HEALDTON,3462 HOSPITAL RD,HEALDTON,OK,34.22286842,-97.49146648
AURORA MED CTR OSHKOSH,855 N WESTHAVEN DRIVE,OSHKOSH,WI,44.02774678,-88.59521837
AURORA MEDICAL CENTER,975 PORT WASHINGTON ROAD,GRAFTON,WI,43.32365209,-87.92817154
LAUREATE PSYCHIATRIC CLINIC AND HOSPITAL,6655 SOUTH YALE AVENUE,TULSA,OK,36.06595501,-95.91859307
HILLCREST HOSPITAL CLAREMORE,1202 NORTH MUSKOGEE PLACE,CLAREMORE,OK,36.32264454,-95.60467518
GREAT PLAINS REGIONAL MEDICAL CENTER,1801 WEST THIRD STREET,ELK CITY,OK,35.41398306,-99.42625102
WAGONER COMMUNITY HOSPITAL,1200 WEST CHEROKEE STREET,WAGONER,OK,35.96152396,-95.3924305
AURORA MEDICAL CENTER BAY AREA,3003 UNIVERSITY DR,MARINETTE,WI,45.07196868,-87.61769653
MUSCOGEE (CREEK) NATION MEDICAL CENTER,1401 MORRIS DRIVE,OKMULGEE,OK,35.61118802,-95.952485
AURORA MEDICAL CENTER SUMMIT,36500 AURORA DRIVE,SUMMIT,WI,43.06591206,-88.46757865
AURORA SHEBOYGAN MEM MED CTR,2629 N 7TH ST,SHEBOYGAN,WI,43.77338685,-87.70999507
SAINT FRANCIS HOSPITAL SOUTH,10501 EAST 91ST STREEET,TULSA,OK,36.03358225,-95.8573201
DUNCAN REGIONAL HOSPITAL,1407 NORTH WHISENANT DRIVE,DUNCAN,OK,34.52031753,-97.975948
MERCY HOSPITAL ADA,430 NORTH MONTA VISTA,ADA,OK,34.77827025,-96.63336758
FREDERICK MEDICAL CLINIC,319 EAST JOSEPHINE AVENUE,FREDERICK,OK,34.40377445,-99.0136548
STARR REGIONAL MEDICAL CENTER ETOWAH,886 HIGHWAY 411 NORTH,ETOWAH,TN,35.34509862,-84.52271936
ANDROSCOGGIN VALLEY HOSPITAL,59 PAGE HILL RD,BERLIN,NH,44.4869509,-71.1552539
WEEKS MEDICAL CENTER,173 MIDDLE STREET,LANCASTER,NH,44.48623037,-71.55433993
ST FRANCIS HOSPITAL,1215 FRANCISCAN DR,LITCHFIELD,IL,39.18121356,-89.63905575
OSF HOLY FAMILY MEDICAL CENTER,1000 W HARLEM AVENUE,MONMOUTH,IL,40.92225293,-90.65830134
MORRISON COMMUNITY HOSPITAL,303 N JACKSON STREET,MORRISON,IL,41.80893488,-89.95787808
SARAH D CULBERTSON MEMORIAL HOSPITAL,238 SOUTH CONGRESS STREET,RUSHVILLE,IL,40.1181628,-90.5643155
ABRAHAM LINCOLN MEMORIAL HOSPITAL,200 STAHLHUT DRIVE,LINCOLN,IL,40.1537865,-89.38989355
MASSAC MEMORIAL HOSPITAL,"28 CHICK STREET, PO BOX 850",METROPOLIS,IL,37.16637476,-88.74004867
PARIS COMMUNITY HOSPITAL,721 E COURT STREET,PARIS,IL,39.60684004,-87.6776547
CENTRAL PENINSULA GENERAL HOSPITAL,250 HOSPITAL PLACE,SOLDOTNA,AK,60.49316905,-151.077827
ATLANTA VA HEALTH MEDICAL CENTER,1670 CLAIRMONT ROAD,DECATUR,GA,33.801861,-84.311425
PIEDMONT ATHENS REGIONAL MED CENTER,1199 PRINCE AVENUE,ATHENS,GA,33.96129247,-83.39794507
BECKLEY ARH HOSPITAL,306 STANAFORD ROAD,BECKLEY,WV,37.7988327,-81.16818375
OWENSBORO HEALTH,811 E PARRISH AVE,OWENSBORO,KY,37.766669,-87.100834
FAIRBANKS MEMORIAL HOSPITAL,1650 COWLES STREET,FAIRBANKS,AK,64.83174471,-147.7393928
MAT-SU REGIONAL MEDICAL CENTER,2500 S. WOODWORTH LOOP,PALMER,AK,61.56289358,-149.2583112
PROVIDENCE VALDEZ MEDICAL CENTER,911 MEALS AVENUE,VALDEZ,AK,61.13653378,-146.3465517
MANIILAQ MEDICAL CENTER,436 5TH AVE.,KOTZEBUE,AK,66.89600162,-162.5868263
MT EDGECUMBE HOSPITAL - SEARHC,222 TONGASS DRIVE,SITKA,AK,57.05156556,-135.3548767
JACKSON COUNTY HOSPITAL,620 HOSPITAL DRIVE,GAINESBORO,TN,36.34880706,-85.65624427
MAURY REGIONAL HOSPITAL,1224 TROTWOOD AVENUE,COLUMBIA,TN,35.60716387,-87.06689111
WEST TENNESSEE HEALTHCARE NORTH HOSPITAL,367 HOSPITAL BLVD.,JACKSON,TN,35.68444711,-88.85404848
GREAT FALLS CLINIC MEDICAL CENTER,1411 9TH ST SOUTH,GREAT FALLS,MT,47.48935452,-111.2913526
WYOMING STATE HOSPITAL,831 HIGHWAY 150 SOUTH,EVANSTON,WY,41.26382872,-110.9470982
HENRY COUNTY MEDICAL CENTER,301 TYSON AVENUE,PARIS,TN,36.29654269,-88.31030459
EPHRAIM MCDOWELL JAMES B. HAGGIN MEMORIAL HOSPITAL,464 LINDEN AVE.,HARRODSBURG,KY,37.75706388,-84.84873911
METHODIST MEDICAL CENTER OF OAK RIDGE,990 OAK RIDGE TURNPIKE,OAK RIDGE,TN,36.02454511,-84.24508553
ERLANGER BLEDSOE,71 WHEELERTOWN AVE,PIKEVILLE,TN,35.62068597,-85.19086883
STARR REGIONAL MEDICAL CENTER,1114 W MADISON AVE,ATHENS,TN,35.44081499,-84.60735287
TRISTAR SKYLINE MEDICAL CENTER,3441 DICKERSON PIKE,NASHVILLE,TN,36.24534093,-86.74961898
KINDRED HOSPITAL - CHATTANOOGA,709 WALNUT STREET,CHATTANOOGA,TN,35.04757814,-85.30770622
ERLANGER MEDICAL CENTER,975 EAST THIRD STREET,CHATTANOOGA,TN,35.04889413,-85.29004745
NORTHCREST MEDICAL CENTER,100 NORTHCREST DRIVE,SPRINGFIELD,TN,36.47848008,-86.88690193
JELLICO MEDICAL CENTER,188 HOSPITAL LANE,JELLICO,TN,36.57370136,-84.12854359
JOHNSON CITY MEDICAL CENTER,400 NORTH STATE OF FRANKLIN ROAD,JOHNSON CITY,TN,36.3078431,-82.38456264
WILLIAMSON MEDICAL CENTER,4321 CAROTHERS PARKWAY,FRANKLIN,TN,35.91616226,-86.81925004
"RIVERSIDE HOSPITAL OF LOUISIANA, INC.",13 HEYMAN LANE,ALEXANDRIA,LA,31.301332,-92.487302
RHEA MEDICAL CENTER,9400 RHEA COUNTY HIGHWAY,DAYTON,TN,35.52910134,-84.98177946
SAINT THOMAS RUTHERFORD HOSPITAL,1700 MEDICAL CENTER PARKWAY,MURFREESBORO,TN,35.86057912,-86.42503138
TENNOVA HEALTHCARE PHYSICIANS REGIONAL MEDICAL CENTER,900 EAST OAK HILL AVENUE,KNOXVILLE,TN,35.99238358,-83.92681776
BRISTOL REGIONAL MEDICAL CENTER,1 MEDICAL PARK BOULEVARD,BRISTOL,TN,36.58551645,-82.25692327
HANCOCK COUNTY HOSPITAL,1519 MAIN STREET,SNEEDVILLE,TN,36.53333298,-83.21510814
HOLSTON VALLEY MEDICAL CENTER,130 WEST RAVINE ROAD,KINGSPORT,TN,36.55410317,-82.55460725
COFFEY COUNTY HOSPITAL,801 NORTH 4TH STREET,BURLINGTON,KS,38.20227177,-95.73769964
STATEN ISLAND UNIVERSITY HOSPITAL - SOUTH,375 SEGUINE AVENUE,STATEN ISLAND,NY,40.51656928,-74.19646609
HOSP SAN CRISTOBAL,506 CARR ROAD,COTO LAUREL,PR,18.03967485,-66.54740673
OCHSNER REHABILITATION HOSPITAL,2614 JEFFERSON HWY,JEFFERSON,LA,29.9615422,-90.1542215
SOUTH CENTRAL KS MED CENTER,6401 PATTERSON PARKWAY,ARKANSAS CITY,KS,37.13299682,-97.03850329
WILSON MEDICAL CENTER,REECE CAMPUS 2600 OTTAWA ROAD,NEODESHA,KS,37.40957059,-95.70833215
THE UNIVERSITY OF KANSAS HEALTH SYSTEM GREAT BEND CAMPUS,514 CLEVELAND STREET,GREAT BEND,KS,38.35616569,-98.79071269
COMMUNITY HOSPITAL ONAGA AND ST MARYS CAMPUS,120 WEST 8TH STREET,ONAGA,KS,39.4959886,-96.17142807
AVAIL HEALTH LAKE CHARLES HOSPITAL,3730 NELSON ROAD,LAKE CHARLES,LA,30.19037837,-93.25037016
HOSPITAL BUEN SAMARITANO,CARR 2 KM 141-1 AVE SEVERIANO CUEVAS 18 BO. CAIMITAL BAJO,AGUADILLA,PR,18.44280934,-67.15088511
HOSP BELLA VISTA,STATE ROAD 349,MAYAGUEZ,PR,18.18676401,-67.11919677
HOSP DE LA CONCEPCION,CARR 2 KM 173 BO CAIN ALTO,SAN GERMAN,PR,18.09880911,-67.03816476
CENTRO DE SALUD INTEGRAL DE OROCOVIS,PR-155 AVE LUIS MUÑOZ MARIN,OROCOVIS PUEBLO,PR,18.226651,-66.39434514
HOSP GENERAL MENONITA - CAYEY,4 H MENDOZA STREET,CAYEY,PR,18.1240463,-66.14748152
ASHFORD PRESBYTERIAN COMMUNITY HOSPITAL INC,1451 AVENUE ASHFORD,SAN JUAN,PR,18.45599329,-66.06546953
MANATI MEDICAL CENTER DR ALEJANDRO OTERO LOPEZ,CALLE HERNANDEZ CARRION 668,MANATI PUEBLO,PR,18.43455435,-66.4824951
ADMINISTRACION DE SERVICIOS MEDICOS DE PR (ASEM),CENTRO MEDICO,MONACILLO URBANO,PR,18.3955074,-66.07284079
UTMB ANGLETON-DANBURY MEDICAL CENTER,132 EAST HOSPITAL DRIVE,ANGLETON,TX,29.1838554,-95.40543329
ST. DAVID'S MEDICAL CENTER,919 EAST 32ND STREET,AUSTIN,TX,30.28989221,-97.72604637
MEDICAL CITY OF ARLINGTON,3301 MATLOCK ROAD,ARLINGTON,TX,32.69232531,-97.11271638
TEXAS HEALTH HARRIS METHODIST HOSPITAL AZLE,108 DENVER TRAIL,AZLE,TX,32.88096648,-97.53309865
HOUSTON METHODIST BAYTOWN HOSPITAL,4401 GARTH ROAD,BAYTOWN,TX,29.76911627,-94.97971661
MEMORIAL HERMANN ORTHOPEDIC AND SPINE HOSPITAL,5410 WEST LOOP SOUTH,BELLAIRE,TX,29.72380542,-95.46121904
BAYSIDE COMMUNITY HOSPITAL,200 HOSPITAL DRIVE,ANAHUAC,TX,29.7525574,-94.68744667
NORTH AUSTIN MEDICAL CENTER,12221 MOPAC SERVICE ROAD,AUSTIN,TX,30.41148803,-97.7062274
ST MARYS HOSPITAL,400 NORTH PLEASANT AVENUE,CENTRALIA,IL,38.53028143,-89.11720631
HOSP ONCOLOGICO DR ISAAC GONZALEZ MARTINEZ,CENTRO MEDICO,MONACILLO URBANO,PR,18.39633673,-66.07253398
HIMA SAN PABLO CUPEY,138 AVENUE WINSTON CHURCHILL,SAN JUAN,PR,18.37259235,-66.04622543
UNION CORRECTIONAL INSTITUTE HOSPITAL,7819 NW 228TH ST,RAIFORD,FL,30.06705191,-82.19385038
WINNIE PALMER HOSPITAL FOR WOMEN & BABIES,83 W MILLER ST,ORLANDO,FL,28.52433987,-81.3791536
WEST FLORIDA REHABILITATION INSTITUTE,8391 N DAVIS HWY,PENSACOLA,FL,30.51634012,-87.21686302
ST JOSEPH'S WOMEN'S HOSPITAL,3030 W DR ML KING JR BLVD,TAMPA,FL,27.98023088,-82.49220872
EASTLAND MEMORIAL HOSPITAL,304 SOUTH DAUGHERTY AVENUE,EASTLAND,TX,32.39982064,-98.82114248
THE HOSPITALS OF PROVIDENCE EAST CAMPUS,3280 JOE BATTLE BOULEVARD,EL PASO,TX,31.79037063,-106.2645055
FREESTONE MEDICAL CENTER,125 NEWMAN STREET,FAIRFIELD,TX,31.72534374,-96.17059823
CONNALLY MEMORIAL MEDICAL CENTER,499 10TH STREET,FLORESVILLE,TX,29.15850063,-98.17497259
BAYLOR SURGICAL HOSPITAL AT FORT WORTH,750 12TH AVENUE,FORT WORTH,TX,32.73685764,-97.34897946
BAYLOR SCOTT & WHITE MEDICAL CENTER - FRISCO,5601 WARREN PARKWAY,FRISCO,TX,33.10449021,-96.83782532
NORTH TEXAS MEDICAL CENTER,1900 HOSPITAL BOULEVARD,GAINESVILLE,TX,33.64636264,-97.1627319
HILL COUNTRY MEMORIAL HOSPITAL,1020 STATE HIGHWAY 16,FREDERICKSBURG,TX,30.262519,-98.88184327
HUNT REGIONAL MEDICAL CENTER GREENVILLE,4215 JOE RAMSEY BOULEVARD,GREENVILLE,TX,33.12231408,-96.12397074
MEMORIAL HOSPITAL,1110 N SARAH DEWITT DRIVE,GRAPEVINE,TX,29.51759211,-97.42934318
GRAHAM REGIONAL MEDICAL CENTER,1301 MONTGOMERY ROAD,GRAPEVINE,TX,33.08958211,-98.58396742
LAVACA MEDICAL CENTER,1400 NORTH TEXANA STREET,HARLINGEN,TX,29.45740267,-96.93821283
MEDINA REGIONAL HOSPITAL,3100 AVENUE E,HOUSTON,TX,29.33462296,-99.13448254
CHI ST LUKES HEALTH BAYLOR COLLEGE OF MEDICINE MEDICAL CENTER,6720 BERTNER STREET,GRANBURY,TX,29.70773116,-95.40044497
MEMORIAL HERMANN NORTHEAST HOSPITAL,18951 MEMORIAL NORTH,HUMBLE,TX,29.99551204,-95.27612889
CHRISTUS JASPER MEMORIAL HOSPITAL,1275 MARVIN HANCOCK DRIVE,JASPER,TX,30.90789453,-94.00955331
KIMBLE HOSPITAL,349 REID RD,JUNCTION,TX,30.49847308,-99.78056091
MEMORIAL HERMANN KATY HOSPITAL,23900 KATY FREEWAY,KATY,TX,29.787311,-95.78625453
PETERSON REGIONAL MEDICAL CENTER,551 HILL COUNTRY DIRVE,KERRVILLE,TX,30.04346599,-99.1528689
ASCENSION SETON MEDICAL CENTER HAYS,6001 KYLE PARKWAY,KYLE,TX,30.00840999,-97.85297745
COVENANT HOSPITAL LEVELLAND,1900 COLLEGE AVENUE,LEVELLAND,TX,33.57268652,-102.3688972
BAYLOR SCOTT AND WHITE HEALTHCARE - LLANO,200 WEST OLLIE STREET,LLANO,TX,30.74264962,-98.67765575
CHRISTUS GOOD SHEPHERD MEDICAL CENTER - LONGVIEW,700 EAST MARSHALL AVENUE,LONGVIEW,TX,32.50074986,-94.72985399
METHODIST MCKINNEY HOSPITAL,8000 WEST ELDORADO PARKWAY,MCKINNEY,TX,33.17652529,-96.7222958
MISSION REGIONAL MEDICAL CENTER,900 SOUTH BRYAN ROAD,MISSION,TX,26.1963482,-98.31431722
TITUS REGIONAL MEDICAL CENTER,2001 NORTH JEFFERSON AVENUE,MOUNT PLEASANT,TX,33.17559939,-94.97117494
HOUSTON METHODIST CLEAR LAKE HOSPITAL,18300 HOUSTON METHODIST DRIVE,NASSAU BAY,TX,29.54924852,-95.08676363
NACOGDOCHES MEDICAL CENTER,4920 N. E. STALLINGS DRIVE,NACOGDOCHES,TX,31.65314431,-94.65387312
SAINT CLARE'S HOSPITAL,915 EAST 5TH STREET,ALTON,IL,38.89080496,-90.17092928
ODESSA REGIONAL MEDICAL CENTER SOUTH CAMPUS,900 EAST 4TH STREET,ODESSA,TX,31.85173303,-102.3595728
PALESTINE REGIONAL MEDICAL CENTER,2900 SOUTH LOOP 256,PALESTINE,TX,31.73259668,-95.62722756
PARIS REGIONAL MEDICAL CENTER - SOUTH CAMPUS,820 CLARKSVILLE STREET,PARIS,TX,33.6596692,-95.54722893
GOOD SHEPHERD MEDICAL CENTER - LINDEN,404 NORTH KAUFMAN STREET,LINDEN,TX,33.01398751,-94.36388358
PAMPA REGIONAL MEDICAL CENTER,ONE MEDICAL PLAZA,PAMPA,TX,35.57247216,-100.9647965
HCA HOUSTON HEALTHCARE SOUTHEAST,4000 SPENCER HIGHWAY,PASADENA,TX,29.66106027,-95.1838147
SURGERY SPECIALTY HOSPITALS OF AMERICA SOUTHEAST HOUSTON,4301-B VISTA RD.,PASADENA,TX,29.65912193,-95.17795651
ST. LUKE'S PATIENTS MEDICAL CENTER,4600 EAST SAM HOUSTON PARKWAY SOUTH,PASADENA,TX,29.64109794,-95.1622144
COVENANT HOSPITAL PLAINVIEW,2601 DIMMITT ROAD,PLAINVIEW,TX,34.20675672,-101.7329457
REEVES COUNTY HOSPITAL,2323 TEXAS STREET,PECOS,TX,31.40118876,-103.5140298
TEXAS HEALTH PRESBYTERIAN HOSPITAL PLANO,6200 WEST PARKER ROAD,PLANO,TX,33.04366355,-96.83647095
FRIO REGIONAL HOSPITAL,200 IH 35 SOUTH,PEARSALL,TX,28.89630465,-99.1172572
METHODIST RICHARDSON MEDICAL CENTER,401 WEST CAMPBELL ROAD,RICHARDSON,TX,32.97431653,-96.72660111
OAKBEND MEDICAL CENTER,1705 JACKSON STREET,RICHMOND,TX,29.57632884,-95.77093702
BAYLOR SCOTT AND WHITE HOSPITAL - ROUND ROCK,300 UNIVERSITY BOULEVARD,ROUND ROCK,TX,30.56339584,-97.68478229
BAYLOR SCOTT & WHITE MEDICAL CENTER - LAKE POINTE,6800 SCENIC DRIVE,ROWLETT,TX,32.91801933,-96.50871907
VALLEY WEST COMMUNITY HOSPITAL,1302 NORTH MAIN STREET,SANDWICH,IL,41.65719013,-88.62073482
SOUTHWEST GENERAL HOSPITAL,7400 BARLITE BOULEVARD,SAN ANTONIO,TX,29.35353715,-98.54470772
FOUNDATION SURGICAL HOSPITAL OF SAN ANTONIO,9522 HUEBNER ROAD,SAN ANTONIO,TX,29.53024011,-98.58975132
METHODIST STONE OAK HOSPITAL,1139 EAST SONTERRA BOULEVARD,SAN ANTONIO,TX,29.61586221,-98.47443477
METHODIST TEXSAN HOSPITAL,6700 IH 10 WEST,SAN ANTONIO,TX,29.48986399,-98.54757258
BAPTIST HEALTH MADISONVILLE,900 HOSPITAL DRIVE,MADISONVILLE,KY,37.34059784,-87.49334945
ADVENTIST HEALTHCARE SHADY GROVE MEDICAL CENTER,9901 MEDICAL CENTER DRIVE,ROCKVILLE,MD,39.09784414,-77.19790423
WILSON N JONES REGIONAL MEDICAL CENTER,500 NORTH HIGHLAND AVENUE,SHERMAN,TX,33.63709739,-96.62382165
MEMORIAL HERMANN FIRST COLONY HOSPITAL,16000 SOUTHWEST FREEWAY,SUGAR LAND,TX,29.59811706,-95.62434849
MEMORIAL HERMANN THE WOODLANDS HOSPITAL,9250 PINECROFT DRIVE,THE WOODLANDS,TX,30.17433545,-95.454342
HCA HOUSTON HEALTHCARE TOMBALL,605 HOLDERRIETH BOULEVARD,TOMBALL,TX,30.08730408,-95.62369558
EAST TEXAS MEDICAL CENTER TRINITY,317 PROSPECT DRIVE,TRINITY,TX,30.95686367,-95.38104923
UVALDE MEMORIAL HOSPITAL,1025 GARNER FIELD ROAD,UVALDE,TX,29.21411967,-99.76783721
ASCENSION PROVIDENCE HEALTH CENTER,6901 MEDICAL PARKWAY,WACO,TX,31.51425066,-97.19949097
HOUSTON PHYSICIANS' HOSPITAL,333 NORTH TEXAS AVENUE,WEBSTER,TX,29.53384927,-95.12619308
PARKVIEW HOSPITAL,901 SOUTH SWEETWATER STREET,WHEELER,TX,35.43933961,-100.2703597
NORTH RUNNELS HOSPITAL,7821 TEXAS 153,WINTERS,TX,31.94922151,-99.95913544
BAYLOR MEDICAL CENTER AT UPTOWN,2727 EAST LEMMON AVENUE,DALLAS,TX,32.80424638,-96.79495495
BAYLOR SCOTT & WHITE MEDICAL CENTER - MCKINNEY,5252 WEST UNIVERSITY DRIVE,MCKINNEY,TX,33.22097161,-96.68260102
HOUSTON METHODIST WEST HOSPITAL,18500 KATY FREEWAY,HOUSTON,TX,29.78715662,-95.69782808
CHRISTUS ST VINCENT REGIONAL MEDICAL CENTER,455 ST MICHAELS DRIVE,SANTA FE,NM,35.65944099,-105.9457805
HOUSTON METHODIST HOSPTIAL,6565 FANNIN STREET,HOUSTON,TX,29.71052314,-95.39893888
HOUSTON METHODIST WILLOWBROOK HOSPITAL,18220 TOMBALL PARKWAY,HOUSTON,TX,29.96646877,-95.55114453
DALLAS MEDICAL CENTER,7 MEDICAL PARKWAY,DALLAS,TX,32.91526053,-96.86979587
RENAISSANCE HOSPITAL TERRELL,1551 HIGHWAY 34 SOUTH,TERRELL,TX,32.71061357,-96.27915304
BAYLOR SCOTT & WHITE EMERGENCY HOSPITAL AT CEDAR PARK,900 EAST WHITESTONE BOULEVARD,CEDAR PARK,TX,30.5233139,-97.81984631
BAYLOR SCOTT & WHITE MEDICAL CENTER - LAKEWAY,100 MEDICAL PARKWAY,AUSTIN,TX,30.33294103,-97.97152991
BAYLOR SCOTT & WHITE MEDICAL CENTER - HILLCREST,100 HILLCREST MEDICAL BLVD,WACO,TX,31.48918306,-97.15754299
TEXAS HEALTH HARRIS METHODIST HOSPITAL ALLIANCE,10864 TEXAS HEALTH TRAIL,FORT WORTH,TX,32.93068061,-97.30991228
ST DAVID'S GEORGETOWN HOSPITAL,2000 SCENIC DR,GEORGETOWN,TX,30.62609475,-97.68871248
ST LUKE'S BAPTIST HOSPITAL,7930 FLOYD CURL DR,SAN ANTONIO,TX,29.51254941,-98.57491087
HARRIS HEALTH SYSTEM LYNDON B JOHNSON GENERAL HOSP,5656 KELLEY ST,HOUSTON,TX,29.81193328,-95.3118817
EAST HOUSTON REGIONAL MED CTR,13111 EAST FWY,HOUSTON,TX,29.77236697,-95.19334666
BAPTIST EMERGENCY HOSPITAL - ZARZAMORA,7719 IH 35 SOUTH,SAN ANTONIO,TX,29.35182455,-98.53302117
MEMORIAL HERMANN PEARLAND HOSPITAL,16100 SOUTH FREEWAY,PEARLAND,TX,29.56350045,-95.38867972
BAYLOR SCOTT & WHITE MEDICAL CENTER - MARBLE FALLS,810 W HIGHWAY 71,MARBLE FALLS,TX,30.51281125,-98.30453796
EMINENT MEDICAL CENTER,1351 W PRESIDENT BUSH HWY,RICHARDSON,TX,32.99919628,-96.75579418
MEMORIAL HOSPITAL FOR CANCER AND ALLIED DISEASES,1275 YORK AVENUE,NEW YORK,NY,40.76427432,-73.95659552
SCENIC MOUNTAIN MEDICAL CENTER,1601 WEST 11TH PLACE,BIG SPRING,TX,32.23637785,-101.4916755
LEGENT HOSPITAL FOR SPECIAL SURGERY,4100 MAPLESHADE LANE,PLANO,TX,33.00140185,-96.77180156
BAPTIST EMERGENCY HOSPITAL,16977 I-35 NORTH,SCHERTZ,TX,29.59427531,-98.29008482
RESOLUTE HEALTH,555 CREEKSIDE CROSSING,NEW BRAUNFELS,TX,29.72200582,-98.06999717
FIRST BAPTIST MEDICAL CENTER,8111 MEADOW ROAD,DALLAS,TX,32.88843795,-96.7665543
STEWARD HILLSIDE REHABILITATION HOSPITAL,8747 SQUIRES LANE NE,WARREN,OH,41.25075354,-80.7324621
SELECT SPECIALTY HOSPITAL - YOUNGSTOWN,1044 BELMONT AVE,YOUNGSTOWN,OH,41.11393419,-80.65840638
RIDGEVIEW HOSPITAL,17872 LINCOLN HIGHWAY,MIDDLE POINT,OH,40.87740052,-84.47896695
BAYLOR SCOTT & WHITE MEDICAL CENTER AT WAXAHACHIE,2400 N I-35 E,WAXAHACHIE,TX,32.42751892,-96.85791008
MEMORIAL HERMANN SURGICAL HOSPITAL FIRST COLONY,16906 SOUTH WEST FREEWAY,SUGAR LAND,TX,29.58990316,-95.63643615
BAY AREA REGIONAL MEDICAL CENTER,200 BLOSSOM STREET,WEBSTER,TX,29.54477125,-95.12586399
SOUTH TEXAS SURGICAL HOSPITAL,6130 PARKWAY DRIVE,CORPUS CHRISTI,TX,27.68604136,-97.37554712
FIRST TEXAS HOSPITAL,9922 LOUETTA RD,HOUSTON,TX,30.0005391,-95.56274483
HARRIS HEALTH SYSTEM QUENTIN MEASE HOSPITAL,3601 NORTH MACGREGOR WAY,HOUSTON,TX,29.71103908,-95.35980642
ST CHARLES - MADRAS,470 NE A STREET,MADRAS,OR,44.63787373,-121.1207254
FAITH COMMUNITY HOSPITAL,215 CHISHOLM TRAIL,JACKSBORO,TX,33.23066769,-98.16693865
THE CORPUS CHRISTI MEDICAL CENTER - NORTHWEST,13725 NORTHWEST BLVD,CORPUS CHRISTI,TX,27.85491733,-97.63542317
REAGAN MEMORIAL HOSPITAL,1300 N MAIN AVE,BIG LAKE,TX,31.20401254,-101.4610176
MEDICAL CITY OF ALLIANCE,3101 NORTH TARRANT PARKWAY,FORT WORTH,TX,32.90029252,-97.31392872
JOHNSTON MEMORIAL HOSPITAL,16000 JOHNSTON MEMORIAL DRIVE,ABINGDON,VA,36.72291339,-81.91212146
ST. LUKE'S REHABILITATION,600 N. ROBBINS ROAD,BOISE,ID,43.61558765,-116.1915765
ST. LUKE'S WOOD RIVER MEDICAL CENTER,100 HOSPITAL DRIVE,KETCHUM,ID,43.64832025,-114.350021
FRANCISCAN ST FRANCIS HEALTH - CARMEL,12188 B NORTH MERIDIAN STREET,CARMEL,IN,39.96803205,-86.15870702
ESKENAZI HEALTH,720 ESKENAZI AVENUE,INDIANAPOLIS,IN,39.77788276,-86.18398589
LAKE GRANBURY MEDICAL CENTER,1310 PALUXY ROAD,GREENVILLE,TX,32.43248931,-97.8038485
LIMESTONE MEDICAL CENTER,701 MCCLINTIC DR.,HAMLIN,TX,31.53271119,-96.53121111
NAVAL MEDICAL CENTER PORTSMOUTH,620 JOHN PAUL JONES CIRCLE,PORTSMOUTH,VA,36.84541393,-76.30576791
LAMB HEALTHCARE CENTER,1500 SOUTH SUNSET AVENUE,LITTLEFIELD,TX,33.91170687,-102.3442949
UNIVERSITY OF MINNESOTA MEDICAL CENTER-FAIRVIEW-EAST BANK-ER,500 HARVARD ST SE,MINNEAPOLIS,MN,44.97237352,-93.23194052
EDWARD PLAINFIELD,24600 W 127TH ST,PLAINFIELD,IL,41.65282059,-88.21737981
TEXAS HEALTH PRESBYTERIAN HOSPITAL ROCKWALL,3150 HORIZON ROAD,ROCKWALL,TX,32.8842895,-96.46622551
VA MEDICAL CENTER - KANSAS CITY,4801 LINWOOD BLVD,KANSAS CITY,MO,39.0640641,-94.5264144
LAWTON INDIAN HOSPITAL,1515 LAWRIE TATUM ROAD,LAWTON,OK,34.62759832,-98.38424195
VA MEDICAL CENTER - OMAHA,4101 WOOLWORTH AVE,OMAHA,NE,41.24253129,-95.9743765
ATRIUM MEDICAL CENTER AT CORINTH,3305 CORINTH PARKWAY,CORINTH,TX,33.15366153,-97.05667447
KINDRED HOSPITAL HOUSTON NORTHWEST,11297 FALLBROOK DRIVE,HOUSTON,TX,29.92440962,-95.58824613
HCA HOUSTON HEATHCARE SPECIALTY HOSPITAL,1300 BINZ STREET,HOUSTON,TX,29.72323923,-95.38702269
SE TEXAS ER AND HOSPITAL,19211 MCKAY DRIVE,HUMBLE,TX,29.99867547,-95.27622266
PAM SPECIALTY HOSPITAL OF LULING,200 MEMORIAL DRIVE,LULING,TX,29.67408592,-97.6550844
DUBUIS HOSPITAL OF PARIS,820 CLARKSVILLE STREET,PARIS,TX,33.68784764,-95.54823349
KINDRED HOSPITAL - SAN ANTONIO,3636 MEDICAL DRIVE,SAN ANTONIO,TX,29.52248579,-98.55637881
KINDRED HOSPITAL SUGAR LAND,1550 FIRST COLONY BOULEVARD,SUGAR LAND,TX,29.60023248,-95.63826118
ATRIUM MEDICAL CENTER,11929 WEST AIRPORT BOULEVARD,STAFFORD,TX,29.64684751,-95.58827701
PAM SPECIALTY HOSPITAL OF VICTORIA NORTH,102 MEDICAL DRIVE,VICTORIA,TX,28.85499709,-97.02196107
BAYLOR SCOTT & WHITE CONTINUING CARE HOSPITAL,546 KEGLEY ROAD,TEMPLE,TX,31.11828493,-97.39929271
"GEORGE H. O'BRIEN, JR. VA MEDICAL CENTER",300 VETERANS BLVD,BIG SPRING,TX,32.23103861,-101.4727695
ALLEGIANCE HEALTH CENTER PERMIAN BASIN,207 TRADEWINDS BOULEVARD,MIDLAND,TX,31.98171367,-102.154371
AURORA SINAI MEDICAL CENTER,945 N 12TH ST,MILWAUKEE,WI,43.04249014,-87.9278109
VA HEALTH CARE CENTER (HCC) AT HARLINGEN,2601 VETERANS DR,HARLINGEN,TX,26.17104215,-97.66727696
NIX HEALTH CARE SYSTEM,414 NAVARRO STREET,SAN ANTONIO,TX,29.42567199,-98.489416
KAHUKU MEDICAL CENTER,56-117 PUALALEA ST,KAHUKU,HI,21.67656379,-157.9542967
KINGWOOD PINES HOSPITAL,2001 LADBROOK DRIVE,KINGWOOD,TX,30.04449762,-95.22998414
SUNRISE CANYON,1950 ASPEN AVENUE,LUBBOCK,TX,33.57294164,-101.8075028
AUSTIN OAKS HOSPITAL,1407 WEST STASSNEY LANE,AUSTIN,TX,30.21159597,-97.79237579
DALLAS BEHAVIORAL HEALTHCARE HOSPITAL LLC,800 KIRNWOOD DRIVE,DE SOTO,TX,32.6424243,-96.87476008
OCEANS BEHAVIORAL HOSPITAL OF THE PERMIAN BASIN,3300 SOUTH FM 1788,MIDLAND,TX,31.92287504,-102.2221648
PALMS BEHAVIORAL HEALTH,613 VICTORIA LANE,HARLINGEN,TX,26.16357422,-97.67216229
BEHAVIORAL MEDICINE AT RENAISSANCE,5510 RAPHAEL DRIVE,EDINBURG,TX,26.25310267,-98.20115591
THE PAVILIION,7201 EVANS,AMARILLO,TX,35.20065636,-101.9185355
UT HEALTH EAST TEXAS BEHAVIORAL HEALTH CENTER,4101 UNIVERSITY BOULEVARD,TYLER,TX,32.31119781,-95.2487673
GEORGETOWN BEHAVIORAL HEALTH INSTITUE,3101 S AUSTIN AVE,GEORGETOWN,TX,30.61490177,-97.68063183
NORTH HAWAII COMMUNITY HOSPITAL,67-1125 MAMALAHOA HWY,KAMUELA,HI,20.0223089,-155.6644209
CHI ST JOSEPH REHAB HOSPITAL,1600 JOSEPH DRIVE,BRYAN,TX,30.65993299,-96.3507145
ENCOMPASS HEALTH REHABILITATION HOSPITAL OF DALLAS,7930 NORTHAVEN,DALLAS,TX,32.90107033,-96.77052204
HEALTHSOUTH REHABILITATION HOSPITAL OF FORTH WORTH,1212 WEST LANCASTER,FORT WORTH,TX,32.747384,-97.3395734
ENCOMPASS HEALTH REHABILITATION OF CITY VIEW,6701 OAKMONT BOULEVARD,FORT WORTH,TX,32.6620118,-97.41279008
ENCOMPASS HEALTH REHABILITATION HOSPITAL OF HUMBLE,19002 MCKAY DRIVE,HUMBLE,TX,29.99373522,-95.2773293
CHRISTUS TRINITY MOTHER FRANCES REHABILITATION HOSPITAL,3131 TROUP HIGHWAY,TYLER,TX,32.31487664,-95.2777701
KINDRED REHABILITATION HOSPITAL CLEAR LAKE,655 EAST MEDICAL CENTER BOULEVARD,WEBSTER,TX,29.54759011,-95.11754744
ENCOMPASS HEALTH REHABILITATION HOSPITAL OF WICHITA FALLS,3901 ARMORY ROAD,WICHITA FALLS,TX,33.87387587,-98.48467593
ICARE REHABILTATION HOSPITAL,3100 PETERS COLONY ROAD,FLOWER MOUND,TX,33.03536409,-97.07726192
BAYLOR INSTITUTE FOR REHABILITATION AT NORTHWEST DALLAS,1340 EMPIRE CENTRAL DRIVE,DALLAS,TX,32.82601681,-96.86986391
PAM REHABILITATION HOSPITAL OF VICTORIA,101 JAMES COLEMAN DRIVE,VICTORIA,TX,28.8557836,-97.02265217
LAS PALMAS REHABILITATION HOSPITAL,300 WAYMORE,EL PASO,TX,31.78905323,-106.508826
REBA MCENTIRE CENTER FOR REHABILITATION,1200 REBA MCENTIRE LANE,DENISON,TX,33.77021768,-96.55128107
WARM SPRINGS REHABILITATION HOSPITAL OF KYLE,5980 KYLE PARKWAY,KYLE,TX,30.00839095,-97.85628014
PROVIDENCE HOSPITAL,230 CALLE DEL NORTE,LAREDO,TX,27.55637042,-99.49195932
PHYSICIANS SURGICAL HOSPITAL - QUAIL CREEK,6819 PLUM CREEK DRIVE,AMARILLO,TX,35.21042221,-101.9127795
NORTHWEST HILLS SURGICAL HOSPITAL,6818 AUSTIN CENTER BOULEVARD,AUSTIN,TX,30.35051386,-97.75171622
USMD HOSPITAL AT ARLINGTON,801 WEST I-20,ARLINGTON,TX,32.67980941,-97.11791224
BAYLOR ORTHOPEDIC AND SPINE HOSPITAL AT ARLINGTON,707 HIGHLANDER BOULEVARD,ARLINGTON,TX,32.68289778,-97.11697677
UNIVERSITY OF TEXAS M.D. ANDERSON CANCER CENTER,"1515 HOLCOMBE BOULEVARD, BOX 43",HOUSTON,TX,29.70703136,-95.39707717
LUBBOCK HEART HOSPITAL,4810 NORTH LOOP 289,LUBBOCK,TX,33.60321011,-101.9155688
SOUTH TEXAS SPINE AND SURGICAL HOSPITAL,18600 NORTH HARDY OAK BOULEVARD,SAN ANTONIO,TX,29.61325343,-98.47736715
BAYLOR HEART AND VASCULAR CENTER,621 N. HALL STREET,DALLAS,TX,32.78817065,-96.78119411
LEGENT ORTHOPEDIC + SPINE,5330 NORTH LOOP 1604 WEST,SAN ANTONIO,TX,29.59073867,-98.59035687
MCALLEN HEART HOSPITAL,1900 S D ST,MCALLEN,TX,26.18368016,-98.21822053
METHODIST SPECIALTY & TRANSPLANT HOSPITAL,8026 FLOYD CURL DR,SAN ANTONIO,TX,29.51422403,-98.57559924
ALTUS BAYTOWN HOSPITAL,1455 MANOR DR,BAYTOWN,TX,29.7719621,-94.98134416
PHYSICIANS SURGICAL HOSPITAL - PANHANDLE CAMPUS,7100 WEST 9TH STREET,AMARILLO,TX,35.20661691,-101.9186901
SHELBY BAPTIST MEDICAL CENTER,"1000 FIRST STREET, NORTH",ALABASTER,AL,33.25236487,-86.81304301
SOUTHEAST ALABAMA MEDICAL CENTER,1108 ROSS CLARK CIRCLE,DOTHAN,AL,31.21630365,-85.36363112
MEDICAL CENTER BARBOUR,820 WEST WASHINGTON STREET,EUFAULA,AL,31.88864508,-85.15640542
GROVE HILL MEMORIAL HOSPITAL,295 JACKSON HIGHWAY S,GROVE HILL,AL,31.6943023,-87.77602463
ATMORE COMMUNITY HOSPITAL,401 MEDICAL PARK DR.,ATMORE,AL,31.01702387,-87.47879851
NORTH MISSISSIPPI MEDICAL CENTER - HAMILTON,1256 MILITARY STREET SOUTH,HAMILTON,AL,34.12597718,-87.99076878
DECATUR MORGAN HOSPITAL - DECATUR CAMPUS,"1201 SEVENTH STREET, SOUTHEAST",DECATUR,AL,34.59034409,-86.97148153
GADSDEN REGIONAL MEDICAL CENTER,1007 GOODYEAR AVENUE,GADSDEN,AL,34.00773628,-85.96598214
SHRINERS HOSPITAL FOR CHILDREN,1310 PUNAHOU ST,HONOLULU,HI,21.30047125,-157.8351435
MENTAL HEALTH INSTITUTE,1800 NORTH 16TH STREET,CLARINDA,IA,40.75782323,-95.03558055
CHI HEALTH MERCY HOSPITAL,800 MERCY DRIVE,COUNCIL BLUFFS,IA,41.26878673,-95.83879432
GROVE CREEK MEDICAL CENTER,350 NORTH MERIDIAN ST,BLACKFOOT,ID,43.19630209,-112.3541696
MOUNTAIN VIEW HOSPITAL,2325 CORONADO STREET,IDAHO FALLS,ID,43.47436602,-111.9879207
PORTNEUF MEDICAL CENTER,777 HOSPITAL WAY,POCATELLO,ID,42.87385301,-112.420762
GENESIS MEDICAL CENTER ALEDO,409 NORTHWEST 9TH AVENUE,ALEDO,IL,41.2055232,-90.75947344
BLUE ISLAND HOSPITAL CO LLC DBA METROSOUTH MEDICAL CENTER,12935 S GREGORY,BLUE ISLAND,IL,41.65811419,-87.67783029
PRESENCE CHICAGO HOSPITALS NETWORK DBA PRESENCE SAINT MARY OF NAZARETH HOSPITAL CENTER,2233 WEST DIVISION STREET,CHICAGO,IL,41.90253261,-87.68327659
ADVOCATE TRINITY HOSPITAL,2320 E 93RD ST,CHICAGO,IL,41.72650439,-87.56722618
CHICAGO BEHAVIORAL HOSPITAL,555 WILSON LANE,DES PLAINES,IL,42.04343765,-87.87903414
PRESANCE CHICAGO HOSPITALS NETWORK DBA PRESENCE HOLY FAMILY MEDICAL CENTER,100 NORTH RIVER ROAD,DES PLAINES,IL,42.05559711,-87.89003761
MERCY HARVARD HOSPITAL,901 GRANT STREET,HARVARD,IL,42.42623691,-88.60704005
HI-DESERT MEDICAL CENTER,6601 WHITE FEATHER ROAD,JOSHUA TREE,CA,34.13189955,-116.2751392
EDGEMOOR GERIATRIC HOSPITAL,655 PARK CENTER DRIVE,SANTEE,CA,32.85234511,-116.9741142
DEPARTMENT OF STATE HOSPITAL - ATASCADERO,10333 EL CAMINO REAL,ATASCADERO,CA,35.46271761,-120.6348906
HEALDSBURG DISTRICT HOSPITAL,1375 UNIVERSITY STREET,HEALDSBURG,CA,38.62709551,-122.864402
PALMDALE REGIONAL MEDICAL CENTER,38600 MEDICAL CENTER DRIVE,PALMDALE,CA,34.58287763,-118.1443669
SAN DIMAS COMMUNITY HOSPITAL,1350 WEST COVINA BOULEVARD,SAN DIMAS,CA,34.09750932,-117.8346358
SAN GABRIEL VALLEY MEDICAL CENTER,438 W. LAS TUNAS DRIVE,SAN GABRIEL,CA,34.10086879,-118.1059188
MENIFEE VALLEY MEDICAL CENTER,28400 MCCALL BOULEVARD,SUN CITY,CA,33.71950227,-117.168033
RIVERSIDE COUNTY REGIONAL MEDICAL CENTER - D/P APH,9990 COUNTY FARM ROAD,RIVERSIDE,CA,33.9190012,-117.4598561
CIRBY HILLS BEHAVIORAL HEALTH,101 CIRBY HILLS DRIVE,ROSEVILLE,CA,38.73039978,-121.2861748
FRESNO HEART AND SURGICAL HOSPITAL,15 E. AUDUBON DRIVE,FRESNO,CA,36.86012591,-119.7885717
SAN JOAQUIN VALLEY REHABILITATION HOSPITAL,7173 NO. SHARON AVENUE,FRESNO,CA,36.83997451,-119.7605535
JEROLD PHELPS COMMUNITY HOSPITAL,733 CEDAR STREET,GARBERVILLE,CA,40.10167816,-123.7922546
MAMMOTH HOSPITAL,85 SIERRA PARK ROAD,MAMMOTH LAKES,CA,37.64395021,-118.9623289
CHAPMAN MEDICAL CENTER,2601 EAST CHAPMAN AVENUE,ORANGE,CA,33.78861494,-117.8264132
FOUNTAIN VALLEY RGNL HOSP AND MED CTR - EUCLID,17100 EUCLID STREET,FOUNTAIN VALLEY,CA,33.71493477,-117.9359695
STANISLAUS SURGICAL HOSPITAL,1421 OAKDALE ROAD,MODESTO,CA,37.66480107,-120.9584999
PORTERVILLE DEVELOPMENTAL CENTER,26501 AVENUE 140,PORTERVILLE,CA,36.03977122,-118.9834188
EASTSIDE MEDICAL CENTER,1700 MEDICAL WAY,SNELLVILLE,GA,33.87756855,-84.02107387
CANDLER COUNTY HOSPITAL,400 CEDAR ROAD,METTER,GA,32.40713253,-82.06552421
SELECT SPECIALTY HOSPITAL - ATLANTA,"550 PEACHTREE STREET, NE",ATLANTA,GA,33.76931988,-84.38555362
PUTNAM GENERAL HOSPITAL,101 LAKE OCONEE PARKWAY,EATONTON,GA,33.3358662,-83.37094562
COLQUITT REGIONAL MEDICAL CENTER,"3131 THOMASVILLE HWY, BOX 40",MOULTRIE,GA,31.1256301,-83.78037885
EVANS MEMORIAL HOSPITAL,200 NORTH RIVER STREET,CLAXTON,GA,32.16588314,-81.89902445
TULANE - LAKESIDE HOSPITAL,4700 S I 10 SERVICE RD W,METAIRIE,LA,29.99675625,-90.18663376
MILLER COUNTY HOSPITAL,209 NORTH CUTHBERT STREET,COLQUITT,GA,31.17548231,-84.73501832
PIEDMONT ROCKDALE HOSPITAL,1412 MILSTEAD AVENUE NE,CONYERS,GA,33.68072383,-84.00157525
WARM SPRINGS MEDICAL CENTER,5995 SPRING STREET,WARM SPRINGS,GA,32.8896319,-84.68374246
JEFFERSON HOSPITAL,1067 PEACHTREE STREET,LOUISVILLE,GA,33.00986749,-82.40554579
JEFF DAVIS HOSPITAL,"163 SOUTH TALLAHSSEE, P O BOX 1690",HAZLEHURST,GA,31.85720986,-82.60714696
UNION GENERAL HOSPITAL,35 HOSPITAL CIRCLE,BLAIRSVILLE,GA,34.8861,-83.9623
JENKINS COUNTY HOSPITAL,931 EAST WINTHROPE AVENUE,MILLEN,GA,32.80423951,-81.93453709
INDIANA UNIVERSITY HEALTH TRANSPLANT,1701 N SENATE BLVD,INDIANAPOLIS,IN,39.78980112,-86.16310064
TULANE MEDICAL CENTER,1415 TULANE AVE,NEW ORLEANS,LA,29.95480011,-90.07690391
ST. JAMES BEHAVIORAL HEALTH HOSPITAL,3136 S ST. LANDRY ROAD,GONZALES,LA,30.20350204,-90.95195201
FRANKLIN FOUNDATION HOSPITAL,1097 NORTHWEST BLVD,FRANKLIN,LA,29.80074801,-91.52382805
PHYSICIANS MEDICAL CENTER,218 CORPORATE DR,HOUMA,LA,29.5995623,-90.74837078
ABROM KAPLAN MEMORIAL HOSPITAL,1310 W 7TH ST,KAPLAN,LA,30.00808717,-92.29706768
ST. JAMES PARISH HOSPITAL,1645 LUTCHER AVE,LUTCHER,LA,30.05187089,-90.70398448
CYPRESS GROVE BEHAVIORAL HEALTH LLC,4673 EUGENE WARE BLVD,BASTROP,LA,32.78099852,-91.94289058
VILLA FELICIANA MEDICAL COMPLEX,5002 HIGHWAY 10,JACKSON,LA,30.83549912,-91.1585267
EAST CARROLL PARISH HOSPITAL,336 N HOOD ST,LAKE PROVIDENCE,LA,32.81056968,-91.17235444
PROMISE HOSPITAL OF LOUISIANA-BOSSIER CITY CAMPUS,2525 VIKING DR,BOSSIER CITY,LA,32.55600839,-93.71686367
HARDTNER MEDICAL CENTER,1102 N PINE RD,OLLA,LA,31.86065862,-92.27558967
AVOYELLES HOSPITAL,4231 HIGHWAY 1192,MARKSVILLE,LA,31.1435452,-92.06294601
PAM SPECIALTY HOSPITAL OF COVINGTON,20050 CRESTWOOD BLVD,COVINGTON,LA,30.44740542,-90.07312565
HOOD MEMORIAL HOSPITAL,301 WALNUT ST,AMITE,LA,30.73254578,-90.51306631
OCHSNER MEDICAL CENTER-BATON ROUGE,17000 MEDICAL CENTER DR,BATON ROUGE,LA,30.44255395,-90.99965218
LAKE CHARLES MEMORIAL HOSPITAL FOR WOMEN,1900 W GAUTHIER RD,LAKE CHARLES,LA,30.14061776,-93.24706275
WAUKESHA CTY MENTAL HLTH CTR,1501 AIRPORT RD,WAUKESHA,WI,43.02606522,-88.23280782
BUTTE COUNTY PHF,592 RIO LINDO AVENUE,CHICO,CA,39.75456397,-121.8476488
COLORADO RIVER MEDICAL CENTER,1401 BAILEY AVENUE,NEEDLES,CA,34.83306592,-114.617494
ALVARADO HOSPITAL MEDICAL CENTER,6655 ALVARADO ROAD,SAN DIEGO,CA,32.77658639,-117.0570646
ALVARADO PARKWAY INSTITUTE B.H.S.,7050 PARKWAY DRIVE,LA MESA,CA,32.77463167,-117.0441618
KINDRED HOSPITAL - SAN DIEGO,1940 EL CAJON BOULEVARD,SAN DIEGO,CA,32.75638366,-117.1446454
PARADISE VALLEY HOSPITAL,2400 EAST FOURTH STREET,NATIONAL CITY,CA,32.68534055,-117.0823367
LAGUNA HONDA HOSPITAL AND REHABILITATION CENTER,375 LAGUNA HONDA BOULEVARD,SAN FRANCISCO,CA,37.77436408,-122.4258734
DESOTO REGIONAL HEALTH SYSTEM,207 JEFFERSON ST,MANSFIELD,LA,32.03540413,-93.70814706
EUNICE EXTENDED CARE HOSPITAL,3879 HIGHWAY 190,EUNICE,LA,30.49615595,-92.37533383
LANGLEY PORTER PSYCHIATRIC INSTITUTE,401 PARNASSUS AVENUE,SAN FRANCISCO,CA,37.76347235,-122.4568506
UCSF MEDICAL CENTER,505 PARNASSUS AVENUE,SAN FRANCISCO,CA,37.76307685,-122.4578772
UCSF MEDICAL CENTER AT MOUNT ZION,1600 DIVISADERO STREET,SAN FRANCISCO,CA,37.78491971,-122.4391472
COAST PLAZA DOCTORS HOSPITAL,13100 SOUTH STUDEBAKER ROAD,NORWALK,CA,33.91269312,-118.0988216
COMMUNITY HOSPITAL OF HUNTINGTON PARK,2623 EAST SLAUSON AVENUE,HUNTINGTON PARK,CA,33.98948957,-118.2241899
LOS ANGELES COUNTY OLIVE VIEW-UCLA MEDICAL CENTER,14445 OLIVE VIEW DRIVE,SYLMAR,CA,34.32587172,-118.4457641
DOCS SURGICAL HOSPITAL,6000 SAN VICENTE BOULEVARD,LOS ANGELES,CA,34.05736635,-118.3624586
OLYMPIA MEDICAL CENTER,5900 WEST OLYMPIA BLVD,LOS ANGELES,CA,34.05729227,-118.3605273
"PACIFIC ALLIANCE MEDICAL CENTER, INC.",531 WEST COLLEGE STREET,LOS ANGELES,CA,34.06488002,-118.2392278
WEST HILLS HOSPITAL AND MEDICAL CENTER,7300 MEDICAL CENTER DRIVE,WEST HILLS,CA,34.20285942,-118.6286237
HAZEL HAWKINS MEMORIAL HOSPITAL,911 SUNSET DRIVE,HOLLISTER,CA,36.83420125,-121.3861936
CORONA REGIONAL MEDICAL CENTER-MAIN,800 SOUTH MAIN STREET,CORONA,CA,33.8730377,-117.5683209
PATIENTS' HOSPITAL OF REDDING,2900 EUREKA WAY,REDDING,CA,40.58592165,-122.4168309
KENTFIELD REHABILITATION HOSPITAL,1125 SIR FRANCIS DRAKE BLVD,KENTFIELD,CA,37.95870622,-122.5524959
SURPRISE VALLEY COMMUNITY HOSPITAL,741 N. MAIN STREET,CEDARVILLE,CA,41.53148907,-120.1714281
FRESNO SURGICAL HOSPITAL,6125 NORTH FRESNO STREET,FRESNO,CA,36.82491409,-119.7821616
TRINITY HOSPITAL,60 B EASTER AVENUE,WEAVERVILLE,CA,40.73808351,-122.9396569
"PACIFIC ORANGE HOSPITAL, LLC",3350 WEST BALL ROAD,ANAHEIM,CA,33.81584699,-118.0071811
GARDEN GROVE HOSPITAL AND MEDICAL CENTER,12601 GARDEN GROVE BLVD.,GARDEN GROVE,CA,33.77498597,-117.9130929
WEST ANAHEIM MEDICAL CENTER,3033 WEST ORANGE AVENUE,ANAHEIM,CA,33.82538521,-117.9950736
OAK VALLEY DISTRICT HOSPITAL (2-RH),350 SOUTH OAK STREET,OAKDALE,CA,37.75761627,-120.8609966
KAWEAH DELTA REHABILITATION HOSPITAL,840 SOUTH AKERS,VISALIA,CA,36.32260683,-119.3479347
WEST PACES MEDICAL CENTER,3200 HOWELL MILL ROAD,ATLANTA,GA,33.84252443,-84.42708736
YOUTH VILLAGES - INNER HARBOUR CAMPUS,4685 DORSETT SHOALS ROAD,DOUGLASVILLE,GA,33.67768895,-84.73391954
WASHINGTON COUNTY HOSPITAL,958 U S HIGHWAY 64 EAST,PLYMOUTH,NC,35.86278208,-76.72928368
DOCTOR'S HOSPITAL AT DEER CREEK,815 S 10TH ST,LEESVILLE,LA,31.13563535,-93.26882275
SOUTHEAST REGIONAL MEDICAL CENTER,719 AVENUE G,KENTWOOD,LA,30.93712864,-90.51924697
DEQUINCY MEMORIAL HOSPITAL,110 W 4TH ST,DEQUINCY,LA,30.45252084,-93.43642444
ALVARADO HOSPITAL MEDICAL CENTER,6645 ALVARADO ROAD,SAN DIEGO,CA,32.77685835,-117.0576813
CALIFORNIA PACIFIC MED CTR-DAVIES CAMPUS,601 DUBOCE AVENUE,SAN FRANCISCO,CA,37.76868428,-122.4345303
CALIFORNIA PACIFIC MEDICAL CENTER - ST. LUKE'S CAMPUS,3555 CESAR CHAVEZ STREET,SAN FRANCISCO,CA,37.74771786,-122.4207679
"CALIFORNIA REHABILITATION INSTITUTE, LLC",2070 CENTURY PARK EAST,LOS ANGELES,CA,34.05910293,-118.4118681
DOCTORS MEDICAL CENTER-BEHAVIORAL HEALTH DEPARTMENT,1501 CLAUS ROAD,MODESTO,CA,37.66582401,-120.9222319
SOUTHERN CALIFORNIA HOSPITAL AT VAN NUYS D/P APH,14433 EMELITA STREET,VAN NUYS,CA,34.1769007,-118.4474908
DEPARTMENT OF STATE HOSPITAL - COALINGA,24511 WEST JAYNE AVENUE,COALINGA,CA,36.13354829,-120.240446
MAYERS MEMORIAL HOSPITAL,43563 STATE HWY. 299 E,FALL RIVER MILLS,CA,41.02388936,-121.4240544
SANTA MONICA - UCLA MEDICAL CENTER & ORTHOPAEDIC HOSPITAL,1250 16TH STREET,SANTA MONICA,CA,34.02770868,-118.4868924
SHASTA COUNTY P H F,2640 BRESLAUER WAY,REDDING,CA,40.55013511,-122.3804882
TELECARE SANTA CRUZ PHF,2250 SOQUEL AVE,SANTA CRUZ,CA,36.98336892,-121.9939471
VENTURA COUNTY MEDICAL CENTER - SANTA PAULA HOSPITAL,825 NORTH 10TH STREET,SANTA PAULA,CA,34.3664467,-119.0649148
PIEDMONT COLUMDUS REGIONAL NORTHSIDE,100 FRIST COURT,COLUMBUS,GA,32.5345248,-84.95121257
"REGENCY HOSPITAL COMPANY OF MACON, LLC",535 COLISEUM DRIVE,MACON,GA,32.84770524,-83.61527747
CHATUGE REGIONAL HOSPITAL,110 S MAIN STREET,HIAWASSEE,GA,34.94657646,-83.7539153
CANDLER HOSPITAL,5353 REYNOLDS STREET,SAVANNAH,GA,32.02816667,-81.10010925
ADVENTHEALTH MURRAY,"707 OLD DALTON ELLIJAY ROAD, PO BOX 1406",CHATSWORTH,GA,34.780041,-84.78317545
TANNER MEDICAL CENTER - CARROLLTON,705 DIXIE STREET,CARROLLTON,GA,33.56947772,-85.0752262
PIEDMONT FAYETTE HOSPITAL,1255 HIGHWAY 54 WEST,FAYETTEVILLE,GA,33.45214711,-84.50798999
ROOSEVELT WARM SPRINGS REHABILITATION HOSPITAL,6135 ROOSEVELT HIGHWAY,WARM SPRINGS,GA,32.88732639,-84.69407001
RIVERWOODS BEHAVIORAL HEALTH SYSTEM,223 MEDICAL CENTER DRIVE,RIVERDALE,GA,33.58221296,-84.39071671
WESLEY WOODS GERIATRIC HOSPITAL,"1821 CLIFTON ROAD, NE",ATLANTA,GA,33.80487845,-84.33140996
THEDACARE MEDICAL CENTER NEW LONDON,1405 MILL ST,NEW LONDON,WI,44.38115627,-88.73370085
AURORA ST LUKES MED CTR SOUTH SHORE,5900 S LAKE DR,CUDAHY,WI,42.93633907,-87.85117278
POST ACUTE MEDICAL SPECIALTY HOSPITAL OF MILWAUKEE,5017 S 110TH ST,GREENFIELD,WI,42.95367246,-88.05096986
AURORA ST LUKES MEDICAL CENTER,2900 W OKLAHOMA AVE,MILWAUKEE,WI,42.98962623,-87.95021077
AURORA WEST ALLIS MEDICAL CENTER,8901 W LINCOLN AVE,WEST ALLIS,WI,43.00142505,-88.02347389
BALDWIN AREA MED CTR,730 10TH AVE,BALDWIN,WI,44.9708939,-92.37410375
BELLIN HEALTH OCONTO HOSPITAL,"820 ARBUTUS AVE, PO BOX 357",OCONTO,WI,44.89638033,-87.86555418
ENCOMPASS HEALTH REHABILITATION HOSPITAL OF ALEXANDRIA,104 NORTH 3RD STREET,ALEXANDRIA,LA,31.31768328,-92.45233196
HOUMA-AMG SPECIALTY HOSPITAL,629 DUNN STREET,HOUMA,LA,29.59298784,-90.71204306
OCHSNER MEDICAL CENTER,1516 JEFFERSON HIGHWAY,NEW ORLEANS,LA,29.96140175,-90.14555057
LODI MEMORIAL HOSPITAL - WEST,800 SO. LOWER SACRAMENTO ROAD,LODI,CA,38.12385822,-121.3059068
TARZANA TREATMENT CENTER,18646 OXNARD STREET,TARZANA,CA,34.17944583,-118.5398562
ST. JUDE MEDICAL CENTER,101 EAST VALENCIA MESA DRIVE,FULLERTON,CA,33.89354835,-117.9274627
AUGUSTA MEDICAL CENTER,78 MEDICAL CENTER DRIVE,FISHERSVILLE,VA,38.09452441,-78.98683733
CHILDREN'S HOSPITAL COLORADO AT ST JOSEPHS HOSP,1830 FRANKLIN STREET,DENVER,CO,39.74525179,-104.968043
SAUK PRAIRIE MEM HSPTL,80 FIRST ST,PRAIRIE DU SAC,WI,43.28285398,-89.72006455
THEDA CLARK MED CTR,130 2ND ST WEST PAVILION,NEENAH,WI,44.18748956,-88.45338493
ADVENTIST HEALTH SONORA REGIONAL MEDICAL CENTER D/P SNF (UNIT 6 AND 7),179 S. FAIRVIEW LANE,SONORA,CA,37.97966734,-120.3907956
SANTA BARBARA COTTAGE HOSPITAL,400 W. PUEBLO STREET,SANTA BARBARA,CA,34.42946669,-119.723809
CENTURY HOSPITAL MEDICAL CENTER,501 CHURCH ST,CENTURY,FL,30.97039384,-87.25759799
SCOTTSDALE HEALTHCARE THOMPSON PEAK,7400 E. THOMPSON PEAK PARKWAY,SCOTTSDALE,AZ,33.67112932,-111.9223224
HEBREW REHABILITATION CENTER,1200 CENTRE ST,BOSTON,MA,42.29680056,-71.13179781
LEMUEL SATTUCK HOSPITAL,170 MORTON ST,BOSTON,MA,42.299581,-71.10174298
ALEGENT HEALTH COMMUNITY MEMORIAL HOSPITAL,631 N 8TH ST,MISSOURI VALLEY,IA,41.56294365,-95.88561847
GAYLORD HOSPITAL,50 GAYLORD FARM RD,WALLINGFORD,CT,41.47288478,-72.85676125
HEBREW REHABILITATION CENTER AT DEDHAM,7000 GREAT MEADOW ROAD,DEDHAM,MA,42.26653577,-71.19502243
WESTWOOD/PEMBROKE HEALTH SYSTEM PEMBROKE,199 OAK STREET,PEMBROKE,MA,42.09762372,-70.76445864
"WALDEN BEHAVIORAL CARE, LLC",9 HOPE AVENUE,WALTHAM,MA,42.369626,-71.249339
NEW ENGLAND SINAI HOSPITAL,"150 YORK STREET, PO BOX CS9105",STOUGHTON,MA,42.14462655,-71.09882863
STURGIS HOSPITAL,916 MYRTLE AVE,STURGIS,MI,41.79462863,-85.4075648
SPECTRUM HEALTH PENNOCK HOSPITAL,1009 W GREEN ST,HASTINGS,MI,42.6447739,-85.30282524
MCLAREN BAY REGION,1900 COLUMBUS AVE,BAY CITY,MI,43.58821643,-83.86839615
FOREST HEALTH MEDICAL CENTER,135 S PROSPECT ST,YPSILANTI,MI,42.23757106,-83.6006476
MARY FREE BED HOSPITAL & REHABILITATION CENTER,235 WEALTHY SE,GRAND RAPIDS,MI,42.95697388,-85.66274625
ASPIRUS KEWEENAW HOSPITAL,205 OSCEOLA,LAURIUM,MI,47.23878317,-88.44350085
DICKINSON COUNTY MEMORIAL HOSPITAL,1721 S STEPHENSON AVE,IRON MOUNTAIN,MI,45.80987806,-88.04445124
FREDONIA REGIONAL HOSPITAL,1527 MADISON,FREDONIA,KS,37.53406788,-95.81415202
"ASPIRUS ONTONAGON HOSPITAL, INC",601 S SEVENTH ST,ONTONAGON,MI,46.86559536,-89.30165846
OTSEGO MEMORIAL HOSPITAL,825 N CENTER AVE,GAYLORD,MI,45.03532708,-84.6749176
ST MARY'S OF MICHIGAN-TOWNE CTR,4599 TOWNE CENTRE RD,SAGINAW,MI,43.47397228,-83.96493169
CHIPPEWA CO MONTEVIDEO HOSP,824 - 11TH ST N,MONTEVIDEO,MN,44.9544612,-95.71181072
MAYO CLINIC HEALTH SYS AUSTIN,1000 FIRST DRIVE NORTHWEST,AUSTIN,MN,43.67448476,-92.97764976
MERCY HOSPITAL JOPLIN,100 MERCY WAY,JOPLIN,MO,37.0365134,-94.50970928
COX MEDICAL CENTERS SOUTH HOSPITAL,3801 SOUTH NATIONAL AVENUE,SPRINGFIELD,MO,37.14494625,-93.27967732
COX MEDICAL CENTERS NORTH HOSPITAL,1423 NORTH JEFFERSON STREET,SPRINGFIELD,MO,37.22478249,-93.28996378
KINDRED HOSPITAL NORTHLAND,500 NW 68TH STREEET,KANSAS CITY,MO,39.21928776,-94.58726916
CAMERON REGIONAL MEDICAL CENTER,1600 EAST EVERGREEN ST,CAMERON,MO,39.73043495,-94.21805603
CENTERPOINT MEDICAL CENTER,19600 EAST 39TH STREET,INDEPENDENCE,MO,39.0495448,-94.34890382
CRITTENTON CHILDREN'S CENTER,10918 ELM AVENUE,KANSAS CITY,MO,38.9243011,-94.4811889
RESEARCH MEDICAL CENTER,2316 EAST MEYER BOULEVARD,KANSAS CITY,MO,39.00889984,-94.55812509
RESEARCH PSYCHIATRIC CENTER,2323 EAST 63RD STREET,KANSAS CITY,MO,39.0114033,-94.56001654
TRUMAN MEDICAL CENTER - LAKEWOOD,7900 LEE'S SUMM IT ROAD,KANSAS CITY,MO,38.97539187,-94.39435345
NEVADA REGIONAL MEDICAL CENTER,800 SOUTH ASH STREET,NEVADA,MO,37.83118452,-94.36048553
COMMUNITY HOSPITAL FAIRFAX,26136 US HIGHWAY 59,FAIRFAX,MO,40.33854875,-95.39045385
BATES COUNTY MEMORIAL HOSPITAL,615 WEST NURSERY STREET,BUTLER,MO,38.24902844,-94.34288588
NORTHWEST MO PSYCHIATRIC REHAB CTR,3505 FREDERICK AVENUE,ST. JOSEPH,MO,39.77848924,-94.8114026
BELTON REGIONAL MEDICAL CENTER,17065 S. 71 HIGHWAY,BELTON,MO,38.81581302,-94.50300191
FREEMAN HOSPITAL EAST,932 EAST 34TH STREET,JOPLIN,MO,37.05075263,-94.50700683
FREEMAN HOSPITAL WEST,1102 WEST 32ND STREET,JOPLIN,MO,37.05273128,-94.52679809
LANDMARK HOSPITAL OF JOPLIN,2040 W. 32ND STREET,JOPLIN,MO,37.05353824,-94.53838146
FREEMAN NEOSHO HOSPITAL,113 WEST HICKORY STREET,NEOSHO,MO,36.86695396,-94.36946792
ST. LUKE'S HOSPITAL,232 SOUTH WOODS MILL ROAD,CHESTERFIELD,MO,38.65129081,-90.50322354
BARNES-JEWISH WEST COUNTY HOSPITAL,12634 OLIVE BOULEVARD,CREVE COEUR,MO,38.67622289,-90.46799797
ST. LUKE'S REHABILITATION HOSPITAL,14709 OLIVE BOULEVARD,CHESTERFIELD,MO,38.67570773,-90.53217838
RANKEN JORDAN A PEDIATRIC REHABILITATION CENTER,11365 DORSETT ROAD,MARYLAND HEIGHTS,MO,38.70995791,-90.41544851
CHRISTIAN HOSPITAL NORTHEAST-NORTHWEST,11133 DUNN ROAD,ST. LOUIS,MO,38.77658169,-90.24035806
STE GENEVIEVE COUNTY MEMORIAL HOSPITAL,800 STE. GENEVIEVE DRIVE,STE GENEVIEVE,MO,37.96934223,-90.05465491
PARKLAND HEALTH CENTER-BONNE TERRE,7245 RAIDER ROAD,BONNE TERRE,MO,37.90805702,-90.524364
SOUTHEASTHEALTH CENTER OF RIPLEY COUNTY,109 PLUM STREET,DONIPHAN,MO,36.62129738,-90.82581957
SSM ST. JOSEPH HEALTH CENTER,300 1ST CAPITOL DRIVE,ST. CHARLES,MO,38.78090867,-90.48462054
SSM ST. JOSEPH HEALTH CENTER-WENTZVILLE,500 MEDICAL DRIVE,WENTZVILLE,MO,38.82215041,-90.880721
SSM ST. JOSEPH HOSPITAL WEST,100 MEDICAL PLAZA,LAKE ST. LOUIS,MO,38.80279667,-90.77574675
CENTERPOINTE HOSPITAL,4801 WELDON SPRING PARKWAY,ST. CHARLES,MO,38.7149685,-90.67188926
BARNES-JEWISH ST. PETERS HOSPITAL,10 HOSPITAL DRIVE,ST. PETERS,MO,38.79360505,-90.57961531
FITZGIBBON HOSPITAL,2305 SOUTH 65 HIGHWAY,MARSHALL,MO,39.09149817,-93.21315913
WRIGHT MEMORIAL HOSPITAL,191 IOWA BOULEVARD,TRENTON,MO,40.06786699,-93.58163967
MERCY HOSPITAL WASHINGTON,901 EAST 5TH STREET,WASHINGTON,MO,38.55259009,-91.00213473
HERMANN AREA DISTRICT HOSPITAL,509 WEST 18TH STREET,HERMANN,MO,38.69307813,-91.44958555
IRON COUNTY HOSPITAL,301 NORTH HIGHWAY 21,PILOT KNOB,MO,37.62312389,-90.64471795
SALEM MEMORIAL DISTRICT HOSPITAL,35629 HWY 72,SULLIVAN,MO,37.66045595,-91.56935238
WASHINGTON COUNTY MEMORIAL HOSPITAL,300 HEALTH WAY,POTOSI,MO,37.92597311,-90.77266582
SULLIVAN COUNTY MEMORIAL HOSPITAL,630 WEST 3RD STREET,MILAN,MO,40.20162729,-93.13381402
PUTNAM COUNTY MEMORIAL HOSPITAL,1926 OAK STREET,UNIONVILLE,MO,40.48274509,-93.00564602
PHELPS COUNTY REGIONAL MEDICAL CENTER,1000 WEST TENTH STREET,ROLLA,MO,37.95248953,-91.78598299
SAINT FRANCIS MEDICAL CENTER,211 SAINT FRANCIS DRIVE,CAPE GIRARDEAU,MO,37.30358194,-89.57114498
PERRY COUNTY MEMORIAL HOSPITAL,434 NORTH WEST STREET,PERRYVILLE,MO,37.73088242,-89.86563015
TEXAS COUNTY MEMORIAL HOSPITAL,1333 S. SAM HOUSTON BOULEVARD,HOUSTON,MO,37.31612169,-91.96116854
ELLETT MEMORIAL HOSPITAL,610 NORTH OHIO AVENUE,APPLETON CITY,MO,38.19247494,-94.02125496
ROYAL OAKS HOSPITAL,307 NORTH MAIN,WINDSOR,MO,38.53413331,-93.51852932
LAFAYETTE REGIONAL HEALTH CENTER,1500 STATE STREET,LEXINGTON,MO,39.18972877,-93.87727791
MERCY HOSPITAL CASSVILLE,94 MAIN STREET,CASSVILLE,MO,36.67478257,-93.87209284
RAY COUNTY MEMORIAL HOSPITAL,904 WOLLARD BOULEVARD,RICHMOND,MO,39.26437785,-93.95742114
HEDRICK MEDICAL CENTER,2799 NORTH WASHINGTON STREET,CHILLICOTHE,MO,39.8171416,-93.55101621
OSAGE BEACH CENTER FOR COGNITIVE DISORDERS,840 PASSOVER RD,OSAGE BEACH,MO,38.13496351,-92.62888933
MERCY ORTHOPEDIC HOSPITAL SPRINGFIELD,3050 E RIVERBLUFF BOULEVARD,OZARK,MO,37.09895339,-93.23474195
MERCY REHABILITATION HOSPITAL SPRINGFIELD,5904 S SOUTHWOOD ROAD,SPRINGFIELD,MO,37.104586,-93.2356021
CEDAR COUNTY MEMORIAL HOSPITAL,1401 SOUTH PARK STREET,EL DORADO SPRINGS,MO,37.86022532,-94.01701241
KINDRED HOSPITAL ST LOUIS SOUTH,10018 KENNERLY ROAD,ST. LOUIS,MO,38.50742341,-90.38001855
MONROE REGIONAL HOSPITAL,400 SOUTH CHESTNUT STREET,ABERDEEN,MS,33.82018241,-88.54024448
NOVANT HEALTH HUNTERSVILLE MEDICAL CENTER,10030 GILEAD ROAD,HUNTERSVILLE,NC,35.40644418,-80.8602609
NOVANT HEALTH MATTHEWS MEDICAL CENTER,1500 MATTHEWS TOWNSHIP PARKWAY,MATTHEWS,NC,35.11998481,-80.71407841
NOVANT HOSPITAL CHARLOTTE ORTHOPEDIC HOSPITAL,1901 RANDOLPH RD,CHARLOTTE,NC,35.2107976,-80.82352152
NOVANT HEALTH ROWAN MEDICAL CENTER,612 MOCKSVILLE AVE,SALISBURY,NC,35.68126984,-80.47070794
CAPE FEAR VALLEY - BLADEN COUNTY HOSPITAL,501 SOUTH POPLAR STREET,ELIZABETHTOWN,NC,34.62243393,-78.60800449
SENTARA ALBEMARLE MEDICAL CENTER,1144 NORTH ROAD STREET,ELIZABETH CITY,NC,36.32359631,-76.21793333
ALLIANCE HEALTH SYSTEM,5000 HIGHWAY 39 NORTH,MERIDIAN,MS,32.40930168,-88.67599657
MERIT HEALTH RANKIN,350 CROSSGATES BOULEVARD,BRANDON,MS,32.28664299,-90.0347478
SOUTH MS STATE HOSPITAL,823 HIGHWAY 589,PURVIS,MS,31.16660224,-89.42521313
MS STATE HOSPITAL,3550 HIGHWAY 468 WEST,WHITFIELD,MS,32.24280574,-90.07024536
CAROLINAS HEALTHCARE SYSTEM KINGS MOUNTAIN,706 WEST KING STREET,KINGS MOUNTAIN,NC,35.24156054,-81.35705796
VIDANT DUPLIN HOSPITAL,401 NORTH MAIN ST,KENANSVILLE,NC,34.96527968,-77.96191331
NOVANT HEALTH MEDICAL PARK HOSPITAL,1950 SOUTH HAWTHORNE RD,WINSTON-SALEM,NC,36.07583757,-80.29676077
JOHNSTON MEDICAL CENTER - SMITHFIELD,509 N. BRIGHT LEAF BLVD.,SMITHFIELD,NC,35.51441458,-78.33498078
MISSION HOSPITAL MCDOWELL,430 RANKIN DRIVE,MARION,NC,35.66339557,-82.02847628
MARGARET R. PARDEE MEMORIAL HOSPITAL,800 NORTH JUSTICE STREET,HENDERSONVILLE,NC,35.32031436,-82.46708042
HAYWOOD REGIONAL MEDICAL CENTER,262 LEROY GEORGE DRIVE,CLYDE,NC,35.52538128,-82.94250888
OUR COMMUNITY HOSPITAL,921 JUNIOR HIGH ROAD,SCOTLAND NECK,NC,36.12914214,-77.42971866
DAVIS REGIONAL MEDICAL CENTER,218 OLD MOCKSVILLE ROAD,STATESVILLE,NC,35.81842867,-80.82871474
"IREDELL MEMORIAL HOSPITAL, INCORPORATED",557 BROOKDALE DRIVE,STATESVILLE,NC,35.79926153,-80.87806834
VIDANT ROANOKE-CHOWAN HOSPITAL,500 SOUTH ACADEMY STREET,AHOSKIE,NC,36.2854313,-76.99523498
HIGH POINT REGIONAL HEALTH SYSTEM,601 NORTH ELM STREET,HIGH POINT,NC,35.9628238,-80.01339432
PERSON MEMORIAL HOSPITAL,615 RIDGE RD,ROXBORO,NC,36.40845347,-78.98489524
"CHATHAM HOSPITAL, INC.",475 PROGRESS BOULEVARD,SILER CITY,NC,35.7229545,-79.42085536
ERLANGER MURPHY MEDICAL CENTER,3990 EAST US HWY 64,MURPHY,NC,35.0727129,-83.96666241
SOUTHEASTERN REGIONAL MEDICAL CENTER,300 WEST 27TH ST,LUMBERTON,NC,34.63691079,-79.01212953
"CHARLES A. CANNON, JR. MEMORIAL HOSPITAL",434 HOSPITAL DRIVE,LINVILLE,NC,36.06031792,-81.88935711
J. ARTHUR DOSHER MEMORIAL HOSPITAL,924 HOWE ST,SOUTHPORT,NC,33.92966195,-78.02159031
CAREPARTNERS REHABILITATION HOSPITAL,68 SWEETEN CREEK ROAD,ASHEVILLE,NC,35.56227109,-82.53131981
CAROLINAS HEALTHCARE SYSTEM BLUE RIDGE,2201 SOUTH STERLING ST,MORGANTON,NC,35.72639117,-81.65449228
CAPE FEAR VALLEY MEDICAL CENTER,1638 OWEN DRIVE,FAYETTEVILLE,NC,35.03183873,-78.93305368
ATRIUM HEALTH- ANSON,2301 US HIGHWAY 74 WEST,WADESBORO,NC,34.97772188,-80.11008562
CAROLINAS CONTINUECARE AT KINGS MOUNTAIN,706 WEST KING STREET,KINGS MOUNTAIN,NC,35.24186511,-81.35654875
CAROLINAS REHABILITATION - NORTHEAST,487 LAKE CONCORD ROAD,CONCORD,NC,35.44281606,-80.60084365
FIRSTHEALTH MOORE REGIONAL HOSPITAL - HOKE CAMPUS,6408 FAYETTEVILLE ROAD,RAEFORD,NC,35.02100061,-79.14921866
SELECT SPECIALTY HOSPITAL - GREENSBORO,1200 NORTH ELM STREET,GREENSBORO,NC,36.09101799,-79.78604811
MOUNTRAIL COUNTY MEDICAL CENTER,615 6TH ST SE,STANLEY,ND,48.31129385,-102.3804219
OAKES COMMUNITY HOSPITAL,1200 N 7TH ST,OAKES,ND,46.15038066,-98.08889428
NORTH DAKOTA STATE HOSPITAL,2605 CIRCLE DR,JAMESTOWN,ND,46.88433277,-98.68474853
TOWNER COUNTY MEDICAL CENTER,HWY 281 N,CANDO,ND,48.493022,-99.21113613
SANFORD MAYVILLE,42 6TH AVENUE SE,MAYVILLE,ND,47.50074328,-97.31690787
PRESENTATION MEDICAL CENTER,213 SECOND AVE NE,ROLLA,ND,48.86264241,-99.61555784
CHI ST ALEXIUS HEALTH WILLISTON,1301 15TH AVE W,WILLISTON,ND,48.15595076,-103.6460137
REGIONS BEHAVIORAL HOSPITAL,8416 CUMBERLAND,BATON ROUGE,LA,30.44479763,-91.09756236
CENTRAL FLORIDA BEHAVIORAL HOSPITAL,6601 CENTRAL FLORIDA PKWY,ORLANDO,FL,28.40911405,-81.46959339
AVERA CREIGHTON HOSPITAL,1503 MAIN ST,CREIGHTON,NE,42.46591834,-97.91689794
ADVENTHEALTH ORLANDO,601 E ROLLINS ST,ORLANDO,FL,28.57441435,-81.36999643
ADVENTHEALTH EAST ORLANDO,7727 LAKE UNDERHILL RD,ORLANDO,FL,28.53998025,-81.28154012
HEALTH CENTRAL,10000 W COLONIAL DR,OCOEE,FL,28.54966242,-81.52765993
SELECT SPECIALTY HOSPITAL - ORLANDO NORTH,2250 BEDFORD RD,ORLANDO,FL,28.57229673,-81.3704418
ST CLOUD REGIONAL MEDICAL CENTER,2906 17TH ST,SAINT CLOUD,FL,28.24362232,-81.30280672
BETHESDA HOSPITAL EAST,2815 S SEACREST BLVD,BOYNTON BEACH,FL,26.50505723,-80.07056397
GOOD SAMARITAN MEDICAL CENTER,1309 N FLAGLER DR,WEST PALM BEACH,FL,26.72546173,-80.05188127
JFK MEDICAL CENTER NORTH CAMPUS,2201 45TH ST,WEST PALM BEACH,FL,26.76132359,-80.08787269
KINDRED HOSPITAL PALM BEACHES,5555 W BLUE HERON BLVD,RIVIERA BEACH,FL,26.78297895,-80.11045934
ST MARY'S MEDICAL CENTER,901 45TH ST,WEST PALM BEACH,FL,26.75587114,-80.06246203
WEST BOCA MEDICAL CENTER,21644 STATE RD 7,BOCA RATON,FL,26.35619626,-80.19918858
WEST PALM BEACH VA MEDICAL CENTER,7305 N MILITARY TRAIL,WEST PALM BEACH,FL,26.78492803,-80.11247524
ADVENTHEALTH NORTH PINELLAS,1395 S PINELLAS AVE,TARPON SPRINGS,FL,28.13293382,-82.75778618
MORTON PLANT HOSPITAL,300 PINELLAS ST,CLEARWATER,FL,27.95281675,-82.80369684
ST PETERSBURG GENERAL HOSPITAL,6500 38TH AVE N,SAINT PETERSBURG,FL,27.80543921,-82.72753874
ADVENTHEALTH SEBRING,4200 SUN N LAKE BLVD,SEBRING,FL,27.53975127,-81.50920998
OREGON STATE HOSPITAL- SALEM,2600 CENTER STREET NE,NE SALEM,OR,44.93903948,-123.0045771
ADVENTHEALTH TAMPA,3100 E FLETCHER AVE,TAMPA,FL,28.07109597,-82.42406118
JAMES A HALEY VETERANS' HOSPITAL,13000 BRUCE B DOWNS BLVD,TAMPA,FL,28.0644091,-82.42927702
SHRINERS HOSPITALS FOR CHILDREN - TAMPA,12502 USF PINE DR,TAMPA,FL,28.06156052,-82.42284161
SOUTH FLORIDA BAPTIST HOSPITAL,301 N ALEXANDER ST,PLANT CITY,FL,28.01567885,-82.13892936
ST JOSEPH'S HOSPITAL NORTH,4211 VAN DYKE RD,LUTZ,FL,28.12958012,-82.50967559
SPRINGBROOK HOSPITAL,7007 GROVE RD,BROOKSVILLE,FL,28.53293554,-82.48420867
RECEPTION AND MEDICAL CENTER HOSPITAL,7765 S COUNTY RD 231,LAKE BUTLER,FL,29.98843525,-82.35763525
DOCTORS HOSPITAL OF SARASOTA,5731 BEE RIDGE RD,SARASOTA,FL,27.30195763,-82.45335061
CAPE CORAL HOSPITAL,636 DEL PRADO BLVD,CAPE CORAL,FL,26.63920518,-81.9420225
ADVENTHEALTH DELAND,701 W PLYMOUTH AVE,DELAND,FL,29.04365274,-81.31734404
FLORIDA HOSPITAL OCEANSIDE,264 S ATLANTIC AVE,ORMOND BEACH,FL,29.28463668,-81.03686657
HALIFAX PSYCHIATRIC CENTER-NORTH,841 JIMMY ANN DR,DAYTONA BEACH,FL,29.21401967,-81.06859327
LAKE WALES MEDICAL CENTER,410 S 11TH ST,LAKE WALES,FL,27.89619993,-81.56527627
CAPE CANAVERAL HOSPITAL,701 W COCOA BEACH CSWY,COCOA BEACH,FL,28.3601248,-80.62298517
ROCKLEDGE REGIONAL MEDICAL CENTER,110 LONGWOOD AVE,ROCKLEDGE,FL,28.3349938,-80.72282544
HOLY CROSS HOSPITAL,4725 N FEDERAL HWY,FORT LAUDERDALE,FL,26.18646107,-80.1199379
MEMORIAL HOSPITAL MIRAMAR,1901 SW 172ND AVE,MIRAMAR,FL,25.99086815,-80.37275118
DEPOO HOSPITAL,1200 KENNEDY DR,KEY WEST,FL,24.5641986,-81.767407
PLANTATION GENERAL HOSPITAL,401 NW 42ND AVE,PLANTATION,FL,26.12640945,-80.20526766
UNIVERSITY HOSPITAL AND MEDICAL CENTER,7201 N UNIVERSITY DR,TAMARAC,FL,26.21215033,-80.2541543
MARINERS HOSPITAL,91500 OVERSEAS HWY,TAVERNIER,FL,25.00615654,-80.52230508
NORTH SHORE MEDICAL CENTER,1100 NW 95TH ST,MIAMI,FL,25.85978595,-80.21470411
SOUTH FLORIDA EVALUATION AND TREATMENT CENTER,18680 SW 376 ST,FLORIDA CITY,FL,25.41940645,-80.49142975
SOUTH MIAMI HOSPITAL,6200 SW 73RD ST,MIAMI,FL,25.70210777,-80.29427318
WEST MARION COMMUNITY HOSPITAL,4600 SW 46TH CT,OCALA,FL,29.14110103,-82.20008112
ST JOSEPH HOSPITAL MILFORD MED CTR,442 NASHUA ROAD,MILFORD,NH,42.8290129,-71.63379017
CENTERSTONE OF FLORIDA,2020 26TH AVE E,BRADENTON,FL,27.47565517,-82.53968647
ATHENS LIMESTONE HOSPITAL,700 WEST MARKET STREET,ATHENS,AL,34.80416393,-86.97840721
SELECT SPECIALTY HOSPITAL,2010 BROOKWOOD MEDICAL CENTER DRIVE,BIRMINGHAM,AL,33.46373094,-86.77625339
CHILDREN'S HOSPITAL OF ALABAMA,"1600 SEVENTH AVENUE, SOUTH",BIRMINGHAM,AL,33.50404815,-86.80515914
NOLAND HOSPITAL BIRMINGHAM,50 MEDICAL PARK EAST DRIVE,BIRMINGHAM,AL,33.41491921,-86.68602206
SELECT SPECIALTY HOSPITAL-BIRMINGHAM,800 MONTCLAIR ROAD,BIRMINGHAM,AL,33.46410394,-86.77733262
UNIVERSITY OF ALABAMA HOSPITAL,619 SOUTH 19TH STREET,BIRMINGHAM,AL,33.50560329,-86.8020354
D. W. MCMILLAN MEMORIAL HOSPITAL,1301 BELLEVILLE AVENUE,BREWTON,AL,31.12703391,-87.0734993
J. PAUL JONES HOSPITAL,317 MCWILLIAMS AVENUE,CAMDEN,AL,31.99752515,-87.30025784
WASHINGTON COUNTY HOSPITAL,14600 ST. STEPHENS AVENUE,CHATOM,AL,31.45953815,-88.23507989
BRYAN W. WHITFIELD MEMORIAL HOSPITAL,"105 U.S. HIGHWAY 80, EAST",DEMOPOLIS,AL,32.50478853,-87.8363988
LAUREL OAKS BEHAVIORAL HEALTH CENTER,700 EAST COTTONWOOD ROAD,DOTHAN,AL,31.20381564,-85.38460112
MEDICAL CENTER ENTERPRISE,400 NORTH EDWARDS STREET,ENTERPRISE,AL,31.3187724,-85.85536974
EVERGREEN MEDICAL CENTER,101 CRESTVIEW AVENUE,EVERGREEN,AL,31.43079857,-86.94048359
FAYETTE MEDICAL CENTER,"1653 TEMPLE AVENUE, NORTH",FAYETTE,AL,33.70817814,-87.82468898
MOUNTAIN VIEW HOSPITAL,3001 SCENIC HIGHWAY,GADSDEN,AL,34.07242575,-86.01976607
O'BLENESS MEMORIAL HOSPITAL,55 HOSPITAL DRIVE,ATHENS,OH,39.32795266,-82.11543398
CRESTWOOD MEDICAL CENTER,ONE HOSPITAL DRIVE,HUNTSVILLE,AL,34.6936114,-86.57217154
"BEHAVIORAL HEALTHCARE CENTER AT HUNTSVILLE, INC.",5315 MILLENNIUM DRIVE,HUNTSVILLE,AL,34.75317024,-86.66569635
MCCULLOUGH-HYDE MEMORIAL HOSPITAL,110 NORTH POPLAR STREET,OXFORD,OH,39.51259616,-84.74153696
RMC JACKSONVILLE,1701 SOUTH PELHAM ROAD,JACKSONVILLE,AL,33.78493225,-85.76355079
WALKER BAPTIST MEDICAL CENTER,"3400 HIGHWAY 78, EAST",JASPER,AL,33.8427289,-87.23599958
GREATER REGIONAL MEDICAL CENTER,1700 WEST TOWNLINE ROAD,CRESTON,IA,41.07016639,-94.38409501
MERCY MEDICAL CENTER,1345 FOUNTAIN BLVD,SPRINGFIELD,OH,39.94097469,-83.81134186
ENCOMPASS HEALTH REHABILITATION HOSPITAL OF MONTGOMERY,4465 NARROW LANE ROAD,MONTGOMERY,AL,32.31910698,-86.2807098
